id,ident,type,name,latitude_deg,longitude_deg,elevation_ft,country_name,region_name,municipality,id_runway,length_ft,width_ft,surface,lighted,slope,y_int,midx,midy,le_ident,le_latitude_deg,le_longitude_deg,le_heading_degT,he_ident,he_latitude_deg,he_longitude_deg,he_heading_degT
3632,KLAX,large_airport,Los Angeles International Airport,33.942501,-118.407997,125,United States,California,Los Angeles,240920,8925,150,CON,1,0.1033938,46.1941368,33.95059967,-118.4165001,6,33.94910049,-118.4309998,83,24,33.95209885,-118.4020004,263
3754,KORD,large_airport,Chicago O'Hare International Airport,41.9786,-87.9048,672,United States,Illinois,Chicago,245379,7500,150,ASP,1,0.9027899,121.3494828,41.98960114,-87.90515137,4,41.9817009,-87.91390228,39,22,41.99750137,-87.89640045,219
3622,KJFK,large_airport,John F Kennedy International Airport,40.639801,-73.7789,13,United States,New York,New York,244968,12079,200,Concrete - Grooved,1,1.2824023,135.2448259,40.63540077,-73.7751503,4,40.62200165,-73.78559875,31,22,40.6487999,-73.76470184,211
3384,KATL,large_airport,Hartsfield Jackson Atlanta International Airport,33.6367,-84.428101,1026,United States,Georgia,Atlanta,243551,9000,150,CON,1,0.0000000,33.6495018,33.6495018,-84.42425156,8,33.6495018,-84.43900299,90,26,33.6495018,-84.40950012,270
3878,KSFO,large_airport,San Francisco International Airport,37.61899948,-122.375,13,United States,California,San Francisco,240770,7500,200,ASP,1,1.5165289,223.2048499,37.61810112,-122.3760033,1,37.60900116,-122.3820038,28,19,37.62720108,-122.3700027,208
3488,KDFW,large_airport,Dallas Fort Worth International Airport,32.896801,-97.038002,607,United States,Texas,Dallas-Fort Worth,243410,9000,200,CON,1,-0.8503502,-49.5896468,32.90380096,-97.01115036,13,32.91260147,-97.02149963,135.3,31,32.89500046,-97.00080109,315.3
3521,KEWR,large_airport,Newark Liberty International Airport,40.692501,-74.168701,18,United States,New Jersey,New York,240988,11000,150,ASP,1,1.5725629,157.3273212,40.68899918,-74.17084885,4,40.67539978,-74.17949677,26,22,40.70259857,-74.16220093,206
3631,KLAS,large_airport,McCarran International Airport,36.08010101,-115.1520004,2181,United States,Nevada,Las Vegas,245934,8988,150,CON,1,1.8664971,251.0397704,36.08649826,-115.1639977,1,36.07529831,-115.1699982,25,19,36.09769821,-115.1579971,205
3670,KMCO,large_airport,Orlando International Airport,28.42939949,-81.30899811,96,United States,Florida,Orlando,245952,9000,150,ASP,1,-83.3525641,-6746.6694600,28.43130016,-81.28245163,17,28.44370079,-81.2826004,179.5,35,28.41889954,-81.28230286,359.5
3486,KDEN,large_airport,Denver International Airport,39.86169815,-104.6729965,5431,United States,Colorado,Denver,244458,12000,150,CON,1,-0.0047019,39.3484829,39.84079933,-104.7054977,7,39.84090042,-104.7269974,90.5,25,39.84069824,-104.6839981,270.5
3643,KLGA,large_airport,La Guardia Airport,40.777199,-73.872597,21,United States,New York,New York,243692,7000,150,ASP,1,1.2085942,130.0650960,40.77729988,-73.87739944,4,40.76919937,-73.88410187,32,22,40.78540039,-73.87069702,212
3602,KIAD,large_airport,Washington Dulles International Airport,38.9445,-77.455803,312,United States,District of Columbia,Washington,250849,11501,150,CONC-G,1,62.5606061,4884.8711763,38.95484924,-77.45954895,1,38.93909836,-77.45980072,1,19,38.97060013,-77.45929718,181
3685,KMIA,large_airport,Miami International Airport,25.79319954,-80.29060364,8,United States,Florida,Miami,242150,8600,150,ASP,1,0.0421660,29.1888960,25.80345058,-80.28844833,8,25.80290031,-80.30149841,87.4,26,25.80400085,-80.27539825,267.4
3772,KPHX,large_airport,Phoenix Sky Harbor International Airport,33.435302,-112.005905,1135,United States,Arizona,Phoenix,240569,10300,150,ASP,1,-0.0029168,33.1043430,33.43104935,-112.0099983,7,33.43109894,-112.0270004,90,25,33.43099976,-111.9929962,270
3422,KBOS,large_airport,Logan International Airport,42.3643,-71.005203,20,United States,Massachusetts,Boston,240222,7861,150,ASP,1,2.0720405,189.5025021,42.36815071,-71.00939941,4,42.35800171,-71.01429749,20,22,42.37829971,-71.00450134,200
3771,KPHL,large_airport,Philadelphia International Airport,39.87189865,-75.2410965,36,United States,Pennsylvania,Philadelphia,244467,5000,150,ASP,1,0.2035477,55.1911917,39.88005066,-75.22140121,8,39.87829971,-75.23000336,75.6,26,39.88180161,-75.21279907,255.6
3457,KCLT,large_airport,Charlotte Douglas International Airport,35.2140007,-80.94309998,748,United States,North Carolina,Charlotte,245926,7502,150,PEM,1,0.7321801,94.4788558,35.21579933,-80.94054794,5,35.20909882,-80.9496994,48.5,23,35.22249985,-80.93139648,228.5
3604,KIAH,large_airport,George Bush Intercontinental Houston Airport,29.9843998,-95.34140015,97,United States,Texas,Houston,241822,9000,150,CON,1,0.0000000,30.0072002,30.00720024,-95.34460068,8,30.00720024,-95.3588028,89.9,26,30.00720024,-95.33039856,269.9
3497,KDTW,large_airport,Detroit Metropolitan Wayne County Airport,42.21239853,-83.35340118,645,United States,Michigan,Detroit,243014,8501,200,PEM,1,1.3575038,155.3573667,42.21805,-83.343647,3,42.20780182,-83.35119629,29,21,42.22829819,-83.33609772,209
3483,KDCA,large_airport,Ronald Reagan Washington National Airport,38.8521,-77.037697,15,United States,District of Columbia,Washington,241380,7169,150,ASP,1,-9.8955823,-723.4815632,38.85179901,-77.03774643,1,38.8423996,-77.03679657,356,19,38.86119843,-77.03869629,176
3709,KMSP,large_airport,Minneapolis–Saint Paul International Airport / Wold–Chamberlain Field,44.882,-93.221802,841,United States,Minnesota,Minneapolis,245737,11006,150,CON,1,0.7100712,111.0781293,44.88294983,-93.22329712,4,44.87229919,-93.23829651,45,22,44.89360046,-93.20829773,225
3887,KSLC,large_airport,Salt Lake City International Airport,40.785749,-111.979746,4227,United States,Utah,Salt Lake City,241552,4892,150,ASP,1,-1.4871306,-125.7297997,40.77975082,-111.9669991,14,40.78570175,-111.9710007,153,32,40.7737999,-111.9629974,333
3673,KMDW,large_airport,Chicago Midway International Airport,41.785999,-87.752403,620,United States,Illinois,Chicago,244434,5507,150,ASP,1,0.7843030,110.6127680,41.78684998,-87.75424957,4,41.78139877,-87.76119995,43,22,41.79230118,-87.74729919,223
3531,KFLL,large_airport,Fort Lauderdale Hollywood International Airport,26.072599,-80.152702,9,United States,Florida,Fort Lauderdale,241503,9000,150,ASP,1,-0.0036898,25.7811037,26.07684994,-80.1527977,10,26.07690048,-80.16649628,90,28,26.07679939,-80.13909912,270
3862,KSAN,large_airport,San Diego International Airport,32.73360062,-117.1900024,17,United States,California,San Diego,244186,9401,200,PEM,1,-0.2448040,4.0450902,32.73354912,-117.1895027,9,32.73709869,-117.2040024,106,27,32.72999954,-117.1750031,286
3435,KBWI,large_airport,Baltimore/Washington International Thurgood Marshall Airport,39.1754,-76.668297,146,United States,Maryland,Baltimore,245650,6000,150,ASP,1,1.1890204,130.3307603,39.17379951,-76.66559982,4,39.16690063,-76.67140198,33.2,22,39.18069839,-76.65979767,213.2
3905,KSTL,large_airport,St Louis Lambert International Airport,38.748697,-90.370003,618,United States,Missouri,St Louis,243530,7602,150,CON,1,0.4007081,74.9631784,38.75144958,-90.36935043,6,38.74670029,-90.3812027,63,24,38.75619888,-90.35749817,243
5453,PHNL,large_airport,Daniel K Inouye International Airport,21.32062,-157.924228,13,United States,Hawaii,Honolulu,253727,6952,150,ASPH-G,0,0.7184223,134.7737092,21.32404995,-157.9150009,4,21.31830025,-157.9230042,53,22,21.32979965,-157.9069977,233
3768,KPDX,large_airport,Portland International Airport,45.58869934,-122.5979996,31,United States,Oregon,Portland,244052,7001,150,ASP,1,0.6800839,128.9722512,45.58920097,-122.6069984,3,45.58240128,-122.6169968,45,21,45.59600067,-122.5970001,225
3711,KMSY,large_airport,Louis Armstrong New Orleans International Airport,29.99340057,-90.25800323,4,United States,Louisiana,New Orleans,245800,7001,150,ASP,1,3.1495478,314.2356115,29.99380016,-90.24845123,2,29.98450089,-90.25140381,15,20,30.00309944,-90.24549866,195
3471,KCVG,large_airport,Cincinnati Northern Kentucky International Airport,39.048801,-84.667801,896,United States,Kentucky,Cincinnati / Covington,240940,12000,150,PEM,1,-0.0023449,38.8477985,39.04634857,-84.6739502,9,39.04639816,-84.69509888,90,27,39.04629898,-84.65280151,270
3926,KTPA,large_airport,Tampa International Airport,27.97550011,-82.53320313,26,United States,Florida,Tampa,243029,6999,150,PEM,1,-0.0276801,25.6861895,27.97049999,-82.52524948,10,27.9708004,-82.53610229,92,28,27.97019958,-82.51439667,272
3420,KBNA,large_airport,Nashville International Airport,36.12450027,-86.67819977,599,United States,Tennessee,Nashville,243616,8001,150,CON,1,2.4881926,251.7997430,36.11374855,-86.68380356,2,36.10329819,-86.68800354,18,20,36.12419891,-86.67960358,198
3778,KPIT,large_airport,Pittsburgh International Airport,40.49150085,-80.23290253,1203,United States,Pennsylvania,Pittsburgh,242074,9708,150,PEM,1,-0.0257980,38.4197056,40.48944855,-80.22885132,10,40.48989868,-80.24629974,92,28,40.48899841,-80.21140289,272
3386,KAUS,large_airport,Austin Bergstrom International Airport,30.197535,-97.662015,542,United States,Texas,Austin,243456,9000,150,CON,1,-35.5769231,-3444.1637233,30.19145012,-97.65755081,17,30.2038002,-97.65789795,178.7,35,30.17910004,-97.65720367,358.7
3883,KSJC,large_airport,Norman Y. Mineta San Jose International Airport,37.362598,-121.929001,62,United States,California,San Jose,244444,4599,100,ASP,1,-0.8639833,-67.9856359,37.36114883,-121.9314995,11,37.36589813,-121.9369965,139,29,37.35639954,-121.9260025,319
3744,KOAK,large_airport,Metropolitan Oakland International Airport,37.721298,-122.221001,9,United States,California,Oakland,240401,5458,150,ASP,1,-0.3352783,-3.2478823,37.72764969,-122.213501,10,37.73049927,-122.2220001,112.2,28,37.72480011,-122.2050018,292.2
3844,KRDU,large_airport,Raleigh Durham International Airport,35.87760162,-78.78749847,435,United States,North Carolina,Raleigh/Durham,242724,10000,150,CON,1,0.8040369,99.2342154,35.88414955,-78.79000092,5,35.87450027,-78.80200195,45,23,35.89379883,-78.77799988,225
3863,KSAT,large_airport,San Antonio International Airport,29.533701,-98.469803,809,United States,Texas,San Antonio,242646,8505,150,CON,1,1.0193165,129.8951943,29.53104973,-98.46220016,4,29.52319908,-98.46990204,41,22,29.53890038,-98.45449829,221
3675,KMEM,large_airport,Memphis International Airport,35.04240036,-89.97669983,341,United States,Tennessee,Memphis,240800,8946,150,ASP,1,-0.0268817,32.6396309,35.05820084,-89.97080231,9,35.05860138,-89.98570251,92,27,35.05780029,-89.9559021,272
3668,KMCI,large_airport,Kansas City International Airport,39.2976,-94.713898,1026,United States,Missouri,Kansas City,240448,10801,150,CON,1,3.4003591,361.4069397,39.3077507,-94.72505188,1,39.29330063,-94.72930145,12.9,19,39.32220078,-94.72080231,192.9
3588,KHOU,medium_airport,William P Hobby Airport,29.645399,-95.2789,46,United States,Texas,Houston,242042,7602,150,CON,1,0.9095818,116.3088750,29.64664936,-95.27700043,4,29.63909912,-95.28530121,44,22,29.6541996,-95.26869965,224
3894,KSNA,medium_airport,John Wayne Airport-Orange County Airport,33.675701,-117.867996,56,United States,California,Santa Ana,245859,5700,150,ASP,1,1.5326271,214.3246907,33.67469978,-117.8694992,2,33.6678009,-117.8740005,27.8,20,33.68159866,-117.8649979,207.8
3454,KCLE,large_airport,Cleveland Hopkins International Airport,41.4117012,-81.84980011,791,United States,Ohio,Cleveland,240929,7096,150,CON,1,0.6311633,93.0725773,41.41084862,-81.85160065,6,41.40459824,-81.8615036,50,24,41.417099,-81.84169769,230
3479,KDAL,medium_airport,Dallas Love Field,32.847099,-96.851799,487,United States,Texas,Dallas,241143,7752,150,CON,1,-0.8648124,-50.9056605,32.84964943,-96.84794998,13,32.8572998,-96.85679626,135.6,31,32.84199905,-96.8391037,315.6
3610,KIND,large_airport,Indianapolis International Airport,39.7173,-86.294403,797,United States,Indiana,Indianapolis,242275,11200,150,CON,1,0.7847963,107.4506453,39.71735001,-86.30685043,5,39.70640182,-86.32080078,44.5,23,39.72829819,-86.29290009,224.5
16091,KABQ,medium_airport,Albuquerque International Sunport,35.040199,-106.609001,5355,United States,New Mexico,Albuquerque,253207,10000,150,CONC-G,0,0.8125596,121.6662435,35.03195,-106.6189995,3,35.02220154,-106.6309967,45,21,35.04169846,-106.6070023,225
3690,KMKE,large_airport,General Mitchell International Airport,42.94720078,-87.89659882,723,United States,Wisconsin,Milwaukee,243985,9690,200,PEM,1,5.8644068,558.3979907,42.94449997,-87.89524841,1,42.93130112,-87.89749908,7,19,42.95769882,-87.89299774,187
3458,KCMH,large_airport,John Glenn Columbus International Airport,39.998001,-82.891899,815,United States,Ohio,Columbus,244547,8000,150,ASP,1,-0.0564213,35.3254477,40.00239944,-82.8934021,10,40.00320053,-82.9076004,94.2,28,40.00159836,-82.8792038,274.2
3932,KTUS,medium_airport,Tucson International Airport / Morris Air National Guard Base,32.115004,-110.938053,2643,United States,Arizona,Tucson,242912,7000,150,ASP,1,0.8500238,126.4349943,32.12399864,-110.9510002,3,32.11719894,-110.9589996,45,21,32.13079834,-110.9430008,225
3396,KBDL,medium_airport,Bradley International Airport,41.93851,-72.688066,173,United States,Connecticut,Hartford,245310,5145,100,ASP,1,-47.3846154,-3401.9637608,41.93835068,-72.67975235,1,41.93130112,-72.67960358,359,19,41.94540024,-72.67990112,179
3620,KJAX,large_airport,Jacksonville International Airport,30.49410057,-81.68789673,30,United States,Florida,Jacksonville,243903,10000,150,CON,1,0.3066506,55.5495503,30.50080013,-81.68499756,8,30.49620056,-81.69999695,71,26,30.5053997,-81.66999817,251
3431,KBUF,large_airport,Buffalo Niagara International Airport,42.94049835,-78.73220062,728,United States,New York,Buffalo,245233,8102,150,ASP,1,0.7621730,102.9459925,42.93919945,-78.73120117,5,42.93119812,-78.74169922,43.8,23,42.94720078,-78.72070313,223.8
5388,PANC,large_airport,Ted Stevens Anchorage International Airport,61.1744,-149.996002,152,United States,Alaska,Anchorage,244713,10600,150,ASP,1,0.0000000,61.1697998,61.1697998,-149.9779968,7,61.1697998,-150.0079956,89.9,25,61.1697998,-149.947998,269.9
3747,KOKC,medium_airport,Will Rogers World Airport,35.393101,-97.6007,1295,United States,Oklahoma,Oklahoma City,245813,7800,150,PEM,1,-0.8214433,-44.7813272,35.39699936,-97.60664749,13,35.40459824,-97.61589813,135.1,31,35.38940048,-97.59739685,315.1
3512,KELP,medium_airport,El Paso International Airport,31.80719948,-106.3779984,3959,United States,Texas,El Paso,241949,12020,150,ASP,1,0.7100076,107.3463132,31.81215,-106.3850021,4,31.80150032,-106.4000015,50,22,31.82279968,-106.3700027,230
5455,PHOG,medium_airport,Kahului Airport,20.898543,-156.431212,54,United States,Hawaii,Kahului,240429,6995,150,ASP,1,1.4361997,245.5624456,20.89699936,-156.4305038,2,20.88909912,-156.4360046,35,20,20.9048996,-156.4250031,215
3766,KPBI,large_airport,Palm Beach International Airport,26.68320084,-80.09559631,19,United States,Florida,West Palm Beach,244100,10008,150,ASPH-G,1,-0.0425081,23.2779448,26.68255043,-80.09309769,10,26.68320084,-80.10839844,93,28,26.68190002,-80.07779694,273
3751,KOMA,medium_airport,Eppley Airfield,41.3032,-95.894096,984,United States,Nebraska,Omaha,240420,8500,150,CON,1,-1.0500212,-59.3839514,41.30405045,-95.89139938,14,41.31349945,-95.90039825,144.4,32,41.29460144,-95.88240051,324.4
3432,KBUR,medium_airport,Bob Hope Airport,34.197703,-118.356378,778,United States,California,Burbank,243001,5801,150,ASP,1,-0.0156564,32.3446708,34.19775009,-118.3595009,8,34.19789886,-118.3690033,90.9,26,34.19760132,-118.3499985,270.9
3795,KPVD,large_airport,Theodore Francis Green State Airport,41.725038,-71.425668,55,United States,Rhode Island,Providence,242989,8700,150,ASP,1,1.1929155,126.9297166,41.7221489,-71.42799759,5,41.71379852,-71.43499756,32,23,41.73049927,-71.42099762,212
3853,KRNO,large_airport,Reno Tahoe International Airport,39.49909973,-119.7679977,4415,United States,Nevada,Reno,245056,6102,150,CON,1,-0.0045092,38.9561933,39.49625015,-119.7680016,7,39.49629974,-119.7789993,90,25,39.49620056,-119.7570038,270
3755,KORF,medium_airport,Norfolk International Airport,36.8946,-76.201202,26,United States,Virginia,Norfolk,242513,9001,150,ASP,1,1.0318934,115.5247395,36.89564896,-76.19884872,5,36.88589859,-76.20829773,38,23,36.90539932,-76.18939972,218
3873,KSDF,large_airport,Louisville Muhammad Ali International Airport,38.1744,-85.736,501,United States,Kentucky,Louisville,245244,7250,150,CON,1,-0.3008406,12.3838992,38.17664909,-85.73559952,11,38.18019867,-85.74739838,111,29,38.17309952,-85.72380066,291
3450,KCHS,medium_airport,Charleston International Airport,32.898602,-80.040497,46,United States,South Carolina,Charleston,245051,7004,150,ASP,1,1.8620130,181.9307484,32.89355087,-80.04090118,3,32.88479996,-80.04560089,24.4,21,32.90230179,-80.03620148,204.4
3864,KSAV,large_airport,Savannah Hilton Head International Airport,32.12760162,-81.20210266,50,United States,Georgia,Savannah,250942,7002,150,CONC-G,0,-179.7499999,-14563.5828436,32.12619972,-81.20005035,1,32.11660004,-81.19999695,0,19,32.13579941,-81.20010376,180
3406,KBHM,medium_airport,Birmingham-Shuttlesworth International Airport,33.562901,-86.753502,650,United States,Alabama,Birmingham,245127,10000,150,ASP,1,0.5757320,83.5119827,33.56259918,-86.75804901,6,33.55479813,-86.77159882,55,24,33.57040024,-86.74449921,235
3421,KBOI,medium_airport,Boise Air Terminal/Gowen Field,43.5644,-116.223,2871,United States,Idaho,Boise,241006,5000,75,ASP,0,-0.2000848,20.2903491,43.54000092,-116.1990013,9,43.54180145,-116.2080002,105,27,43.53820038,-116.1900024,285
3847,KRIC,large_airport,Richmond International Airport,37.50519943,-77.31970215,167,United States,Virginia,Richmond,242481,6607,150,ASP,1,3.3234870,294.5031454,37.50769997,-77.32704926,2,37.49890137,-77.32969666,13.4,20,37.51649857,-77.32440186,193.4
3752,KONT,large_airport,Ontario International Airport,34.05599976,-117.6009979,944,United States,California,Ontario,244218,12198,150,CON,1,0.0000000,34.0569000,34.05690002,-117.6030006,8,34.05690002,-117.6230011,90,26,34.05690002,-117.5830002,270
3913,KSYR,large_airport,Syracuse Hancock International Airport,43.11119843,-76.10630035,421,United States,New York,Syracuse,244404,3261,150,CON,0,0.6345365,91.4194536,43.11824989,-76.12044907,6,43.11529922,-76.12509918,49,24,43.12120056,-76.11579895,229
3371,KALB,medium_airport,Albany International Airport,42.74829865,-73.80169678,285,United States,New York,Albany,245818,7200,150,ASP,1,-24.5904762,-1772.1456411,42.74705124,-73.80469894,1,42.73720169,-73.8042984,358.2,19,42.75690079,-73.80509949,178.2
3589,KHPN,medium_airport,Westchester County Airport,41.06700134,-73.70760345,439,United States,New York,White Plains,242305,4451,150,ASP,1,-0.1709319,28.4667180,41.06575012,-73.70789719,11,41.06710052,-73.71579742,102,29,41.06439972,-73.69999695,282
3757,KOSH,medium_airport,Wittman Regional Airport,43.9844017,-88.55699921,808,United States,Wisconsin,Oshkosh,243358,3424,75,ASP,0,0.7182573,107.5943375,43.98999977,-88.55369949,4,43.98669815,-88.5582962,44.8,22,43.99330139,-88.54910278,224.8
5448,PHKO,medium_airport,Ellison Onizuka Kona International Airport at Keahole,19.738783,-156.045603,47,United States,Hawaii,Kailua-Kona,241261,11000,150,ASP,1,10.0982143,1595.5197148,19.73880005,-156.0455017,17,19.75390053,-156.0440063,185,35,19.72369957,-156.0469971,5
3858,KRSW,large_airport,Southwest Florida International Airport,26.53619957,-81.75520325,30,United States,Florida,Fort Myers,244927,12000,150,ASP,1,0.6499229,79.6706956,26.53614998,-81.75514984,6,26.5265007,-81.76999664,54,24,26.54579926,-81.74030304,234
3552,KGEG,medium_airport,Spokane International Airport,47.6199,-117.533997,2376,United States,Washington,Spokane,240665,11002,150,ASP,1,0.6653462,125.8213573,47.62254906,-117.5309982,3,47.61389923,-117.5439987,45,21,47.63119888,-117.5179977,225
3930,KTUL,large_airport,Tulsa International Airport,36.19839859,-95.88809967,677,United States,Oklahoma,Tulsa,245713,7372,150,CON,1,0.0079341,36.9562712,36.19549942,-95.88650131,8,36.19540024,-95.89900208,89.4,26,36.1955986,-95.87400055,269.4
3566,KGRR,medium_airport,Gerald R. Ford International Airport,42.88079834,-85.52279663,794,United States,Michigan,Grand Rapids,243568,5000,100,CON,1,0.1140133,52.6415192,42.88985062,-85.53099823,8,42.88880157,-85.54019928,81.3,26,42.89089966,-85.52179718,261.3
3481,KDAY,medium_airport,James M Cox Dayton International Airport,39.902401,-84.219398,1009,United States,Ohio,Dayton,242737,10900,150,PEM,1,0.5330065,84.7987629,39.90360069,-84.23005295,6,39.89509964,-84.2460022,55.3,24,39.91210175,-84.2141037,235.3
3496,KDSM,medium_airport,Des Moines International Airport,41.534,-93.663101,958,United States,Iowa,Des Moines,244170,9003,150,ASP,1,0.5470639,92.7707599,41.53064919,-93.66384888,5,41.52339935,-93.67710114,54,23,41.53789902,-93.65059662,234
3605,KICT,medium_airport,Wichita Eisenhower National Airport,37.649899,-97.433098,1333,United States,Kansas,Wichita,240444,10301,150,CON,1,2.1804253,250.1087169,37.64829826,-97.43989944,1,37.63499832,-97.44599915,20,19,37.66159821,-97.43379974,200
3645,KLIT,medium_airport,Bill & Hillary Clinton National Airport/Adams Field,34.729582,-92.223728,262,United States,Arkansas,Little Rock,243266,8273,150,CON,1,0.7851965,107.1474529,34.73035049,-92.22800064,4,34.72249985,-92.23799896,47,22,34.73820114,-92.21800232,227
3707,KMSN,medium_airport,Dane County Regional Truax Field,43.1399,-89.337502,887,United States,Wisconsin,Madison,240455,7200,150,CON,1,1.3206174,161.1195292,43.14185143,-89.33524704,3,43.1332016,-89.34179688,28.8,21,43.15050125,-89.3286972,208.8
3463,KCOS,medium_airport,City of Colorado Springs Municipal Airport,38.805801,-104.700996,6187,United States,Colorado,Colorado Springs,245222,8269,150,ASP,1,-0.8052270,-45.4961435,38.81514931,-104.704998,12,38.82320023,-104.7149963,135.1,30,38.80709839,-104.6949997,315.1
3855,KROC,medium_airport,Greater Rochester International Airport,43.1189,-77.672401,559,United States,New York,Rochester,242658,8001,150,ASP,1,1.1909621,135.6300036,43.11624908,-77.67984772,4,43.10689926,-77.68769836,32,22,43.12559891,-77.67199707,212
3796,KPWM,large_airport,Portland International Jetport,43.646198,-70.309303,76,United States,Maine,Portland,245809,7200,150,ASP,1,-0.0701014,38.7159459,43.64495087,-70.31255341,11,43.64590073,-70.32610321,95,29,43.64400101,-70.2990036,275
3684,KMHT,medium_airport,Manchester-Boston Regional Airport,42.932598,-71.435699,266,United States,New Hampshire,Manchester,242322,6850,150,ASP,1,0.8031305,100.3112140,42.93585014,-71.43965149,6,42.92890167,-71.44830322,42,24,42.94279861,-71.43099976,222
3792,KPSP,medium_airport,Palm Springs International Airport,33.8297,-116.507004,477,United States,California,Palm Springs,245498,4952,75,ASP,1,-1.0999237,-94.3169140,33.82970047,-116.5050011,13,33.83520126,-116.5100021,143.5,31,33.82419968,-116.5,323.5
3866,KSBA,medium_airport,Santa Barbara Municipal Airport,34.42620087,-119.8399963,13,United States,California,Santa Barbara,245674,6052,150,ASP,1,0.0208835,36.9304767,34.42770004,-119.8444977,7,34.42750168,-119.8539963,88.5,25,34.42789841,-119.8349991,268.5
3783,KPNS,medium_airport,Pensacola International Airport,30.4734,-87.1866,121,United States,Florida,Pensacola,242026,7000,150,ASP,1,0.1843354,46.5445950,30.47329998,-87.18505096,8,30.47130013,-87.19589996,78,26,30.47529984,-87.17420197,258
3938,KTYS,medium_airport,McGhee Tyson Airport,35.811001,-83.994003,981,United States,Tennessee,Knoxville,243473,9005,150,CON,1,0.8224599,104.8954536,35.81309891,-83.99480057,5,35.8042984,-84.00550079,44.8,23,35.82189941,-83.98410034,224.8
3924,KTLH,medium_airport,Tallahassee Regional Airport,30.3965,-84.350304,81,United States,Florida,Tallahassee,243700,8000,150,ASP,1,0.0079162,31.0590801,30.39140034,-84.34384918,9,30.3913002,-84.35649872,89,27,30.39150047,-84.33119965,269
3430,KBTV,medium_airport,Burlington International Airport,44.471901,-73.153297,335,United States,Vermont,South Burlington,243900,3611,75,ASP,1,-4.6709091,-297.2178769,44.4686985,-73.15205002,1,44.46379852,-73.15100098,351,19,44.47359848,-73.15309906,171
3522,KEYW,medium_airport,Key West International Airport,24.556101,-81.759598,3,United States,Florida,Key West,245923,4801,100,ASP,1,0.0068385,25.1152636,24.55615044,-81.75954819,9,24.55610085,-81.76679993,89,27,24.55620003,-81.75229645,269
3401,KBFI,medium_airport,Boeing Field King County International Airport,47.529999,-122.302002,21,United States,Washington,Seattle,244141,3709,100,ASP,1,-1.2573610,-106.2460477,47.53359985,-122.3035011,14,47.5379982,-122.3069992,140,32,47.52920151,-122.3000031,320
3640,KLEX,medium_airport,Blue Grass Airport,38.036499,-84.605904,979,United States,Kentucky,Lexington,245524,7003,150,ASP,1,0.8945498,113.7201135,38.03489876,-84.60704803,4,38.02769852,-84.61509705,42,22,38.042099,-84.59899902,222
3568,KGSO,medium_airport,Piedmont Triad International Airport,36.097801,-79.937302,925,United States,North Carolina,Greensboro,244086,9000,150,ASPH,1,0.7774887,98.2665983,36.10785103,-79.94810104,5,36.09930038,-79.95909882,46,23,36.11640167,-79.93710327,226
3705,KMRY,medium_airport,Monterey Peninsula Airport,36.5870018,-121.8430023,257,United States,California,Monterey,244399,3513,60,ASP,1,-0.3363384,-4.3925549,36.58675003,-121.8395004,10,36.58860016,-121.8450012,112.8,28,36.5848999,-121.8339996,292.8
3569,KGSP,medium_airport,Greenville Spartanburg International Airport,34.895699,-82.218903,964,United States,South Carolina,Greer,245237,11000,150,PEM,1,1.3127934,142.8320653,34.89570045,-82.21884918,4,34.88290024,-82.22859955,32.2,22,34.90850067,-82.20909882,212.2
3633,KLBB,medium_airport,Lubbock Preston Smith International Airport,33.663601,-101.822998,3282,United States,Texas,Lubbock,245365,8001,150,CON,1,0.0038146,34.0506332,33.66225052,-101.8160019,8,33.66220093,-101.8290024,89.7,26,33.66230011,-101.8030014,269.7
3920,KTEB,medium_airport,Teterboro Airport,40.85010147,-74.06079865,9,United States,New Jersey,Teterboro,242706,7000,150,ASP,1,13.6766304,1053.7354462,40.84829903,-74.05970001,1,40.83869934,-74.06040192,3.2,19,40.85789871,-74.05899811,183.2
3478,KDAB,medium_airport,Daytona Beach International Airport,29.179899,-81.058098,34,United States,Florida,Daytona Beach,241378,10500,150,ASP,1,0.4046951,61.9843849,29.1786499,-81.06284714,7,29.17259979,-81.07779694,65,25,29.18470001,-81.04789734,245
21321,KVGT,medium_airport,North Las Vegas Metropolitan International Airport,36.210701,-115.194,2205,United States,Nevada,Las Vegas,242744,5004,75,ASP,1,0.0177210,38.2548056,36.21344948,-115.1945,7,36.2132988,-115.2030029,88.6,25,36.21360016,-115.185997,268.6
3838,KRAP,medium_airport,Rapid City Regional Airport,44.04529953,-103.0569992,3204,United States,South Dakota,Rapid City,243538,3601,75,ASP,1,0.3833439,83.5568610,44.05020142,-103.0580025,5,44.04790115,-103.064003,61.9,23,44.05250168,-103.052002,241.9
3439,KCAK,medium_airport,Akron Canton Regional Airport,40.91609955,-81.44219971,1228,United States,Ohio,Akron,244004,7601,150,ASP,1,17.3662420,1455.2382402,40.91760063,-81.44079971,1,40.90719986,-81.44139862,2,19,40.9280014,-81.44020081,182
5449,PHLI,medium_airport,Lihue Airport,21.976,-159.339005,153,United States,Hawaii,Lihue,242399,6500,150,ASP,1,0.9075791,166.5947155,21.97924995,-159.3420029,3,21.97290039,-159.348999,45,21,21.98559952,-159.3350067,225
3899,KSRQ,medium_airport,Sarasota Bradenton International Airport,27.395399,-82.554398,30,United States,Florida,Sarasota/Bradenton,244056,5009,150,ASP,1,1.1253975,120.3002262,27.39540005,-82.55290222,4,27.38999939,-82.55770111,38,22,27.4008007,-82.54810333,218
3448,KCHA,medium_airport,Chattanooga Metropolitan Airport (Lovell Field),35.035301,-85.203796,683,United States,Tennessee,Chattanooga,242183,7400,150,ASP,1,2.7338710,267.9690026,35.03240013,-85.20394897,2,35.02270126,-85.20749664,16.7,20,35.042099,-85.20040131,196.7
3405,KBGR,medium_airport,Bangor International Airport,44.8074,-68.828102,192,United States,Maine,Bangor,240571,11440,200,ASP,1,-0.6930227,-2.8919855,44.80745125,-68.82810211,15,44.81840134,-68.84390259,134,33,44.79650116,-68.81230164,314
3524,KFAT,medium_airport,Fresno Yosemite International Airport,36.776199,-119.718002,336,United States,California,Fresno,243596,9217,150,ASP,1,-0.5882173,-33.6431708,36.77614975,-119.7164993,11,36.78350067,-119.7289963,125.4,29,36.76879883,-119.7040024,305.4
3672,KMDT,medium_airport,Harrisburg International Airport,40.19350052,-76.76339722,310,United States,Pennsylvania,Harrisburg,241647,10001,200,ASP,1,-0.3874851,10.4488372,40.19320107,-76.76259995,13,40.19940186,-76.7786026,116.8,31,40.18700027,-76.74659729,296.8
3775,KPIE,medium_airport,St Petersburg Clearwater International Airport,27.91020012,-82.68740082,11,United States,Florida,St Petersburg-Clearwater,242595,5903,150,ASP,1,1.0829802,117.4505957,27.90665054,-82.68289948,4,27.9008007,-82.68830109,40,22,27.91250038,-82.67749786,220
3438,KCAE,medium_airport,Columbia Metropolitan Airport,33.938801,-81.119499,236,United States,South Carolina,Columbia,241977,8001,150,PEM,1,0.8439295,102.3914343,33.93634987,-81.11470032,5,33.92850113,-81.12400055,45,23,33.94419861,-81.10540009,225
3387,KAVL,medium_airport,Asheville Regional Airport,35.436199,-82.541801,2165,United States,North Carolina,Asheville,242865,8001,150,ASP,1,-2.2388060,-149.3588787,35.43619919,-82.54180145,17,35.44649887,-82.54640198,160,35,35.42589951,-82.53720093,340
3767,KPDK,medium_airport,DeKalb Peachtree Airport,33.87559891,-84.30200195,1003,United States,Georgia,Atlanta,245268,3383,150,ASP,1,0.0534741,38.3819629,33.87399864,-84.30180359,9,33.87369919,-84.30740356,86.4,27,33.8742981,-84.29620361,266.4
21033,KSAF,medium_airport,Santa Fe Municipal Airport,35.61709976,-106.0889969,6348,United States,New Mexico,Santa Fe,244787,8342,150,ASP,1,1.1690510,159.6400368,35.61775017,-106.0880013,2,35.60839844,-106.0960007,35.1,20,35.6271019,-106.0800018,215.1
21087,KSMO,medium_airport,Santa Monica Municipal Airport,34.0158,-118.450996,170,United States,California,Santa Monica,241222,3500,150,Asphalt,1,0.8814147,138.4207436,34.01585007,-118.4514999,3,34.01100159,-118.4570007,44.6,21,34.02069855,-118.4459991,224.6
3723,KNEW,medium_airport,Lakefront Airport,30.04240036,-90.02829742,8,United States,Louisiana,New Orleans,243365,3113,75,ASP,1,0.0103113,30.9654309,30.03715038,-90.02569962,9,30.03709984,-90.0306015,89,27,30.03720093,-90.02079773,269
21333,KVNY,medium_airport,Van Nuys Airport,34.20980072,-118.4899979,802,United States,California,Van Nuys,243931,4011,75,ASP,1,-11.0076336,-1270.0754780,34.21350098,-118.4894981,16,34.21900177,-118.4899979,175.5,34,34.20800018,-118.4889984,355.5
3377,KAMA,medium_airport,Rick Husband Amarillo International Airport,35.219398,-101.706001,3607,United States,Texas,Amarillo,245499,13502,300,CON,1,0.7816690,114.7266325,35.21800041,-101.7164993,4,35.20510101,-101.7330017,46,22,35.23089981,-101.6999969,226
3449,KCHO,medium_airport,Charlottesville Albemarle Airport,38.1385994,-78.45290375,639,United States,Virginia,Charlottesville,243593,6001,150,ASP,1,1.9358108,190.0085267,38.13865089,-78.45285034,3,38.13100052,-78.45680237,22,21,38.14630127,-78.44889832,202
3618,KJAC,medium_airport,Jackson Hole Airport,43.6072998,-110.737999,6451,United States,Wyoming,Jackson,241529,6300,150,ASP,1,2.0386450,269.3628234,43.6073513,-110.737999,1,43.5992012,-110.7419968,19.5,19,43.6155014,-110.7340012,199.5
3562,KGRB,medium_airport,Austin Straubel International Airport,44.4851,-88.129601,695,United States,Wisconsin,Green Bay,243113,7700,150,CON,1,0.4157690,81.1274474,44.48769951,-88.12525177,6,44.48239899,-88.13800049,59.9,24,44.49300003,-88.11250305,239.9
20589,KMYF,small_airport,Montgomery-Gibbs Executive Airport,32.8157,-117.139999,427,United States,California,San Diego,240187,3400,150,ASP,0,0.3901602,78.5206057,32.81685066,-117.1410027,5,32.81489944,-117.1460037,65,23,32.81880188,-117.1360016,245
3876,KSFB,large_airport,Orlando Sanford International Airport,28.77759933,-81.23750305,55,United States,Florida,Orlando,242038,3578,75,ASP,1,0.0000000,28.7784996,28.7784996,-81.23989868,9,28.7784996,-81.24549866,90,27,28.7784996,-81.23429871,270
3594,KHSV,medium_airport,Huntsville International Carl T Jones Field,34.637199,-86.775101,629,United States,Alabama,Huntsville,245702,10006,150,ASP,1,55.4538462,4846.1339502,34.63934898,-86.76575089,18,34.65309906,-86.76550293,181,36,34.62559891,-86.76599884,1
3879,KSGF,medium_airport,Springfield Branson National Airport,37.245701,-93.388603,1268,United States,Missouri,Springfield,241331,7003,150,CON,1,2.0124357,225.1753541,37.2445507,-93.38475037,2,37.23559952,-93.3891983,22,20,37.25350189,-93.38030243,202
19291,KAPA,medium_airport,Centennial Airport,39.57009888,-104.848999,5885,United States,Colorado,Denver,241571,4800,75,ASP,1,-0.2937530,8.7734865,39.57054901,-104.8400002,10,39.57289886,-104.8479996,110.9,28,39.56819916,-104.8320007,290.9
19912,KFXE,medium_airport,Fort Lauderdale Executive Airport,26.19729996,-80.17070007,13,United States,Florida,Fort Lauderdale,240583,6001,100,ASP,1,0.0989103,34.1283172,26.19849968,-80.17179871,9,26.19759941,-80.18090057,84,27,26.19939995,-80.16269684,264
20187,KISM,medium_airport,Kissimmee Gateway Airport,28.28980064,-81.43710327,82,United States,Florida,Orlando,240751,5000,150,ASP,1,0.5530347,73.3282120,28.2904501,-81.4375,6,28.28680038,-81.44409943,58,24,28.29409981,-81.43090057,238
3416,KBLI,medium_airport,Bellingham International Airport,48.7928009,-122.538002,170,United States,Washington,Bellingham,244751,6701,150,ASP,1,-18.4083969,-2206.9262822,48.79269981,-122.5375023,16,48.80189896,-122.538002,180,34,48.78350067,-122.5370026,360
3559,KGNV,medium_airport,Gainesville Regional Airport,29.69009972,-82.27179718,152,United States,Florida,Gainesville,240798,4158,100,ASP,1,0.4781167,69.0308914,29.69305038,-82.27664948,7,29.69029999,-82.28240204,61,25,29.69580078,-82.27089691,241
3717,KMYR,medium_airport,Myrtle Beach International Airport,33.67969894,-78.92829895,25,United States,South Carolina,Myrtle Beach,241262,9503,150,ASP,1,-3.9839094,-280.7634581,33.67975044,-78.92830276,18,33.69250107,-78.9315033,168,36,33.66699982,-78.92510223,348
3868,KSBN,medium_airport,South Bend Regional Airport,41.708698,-86.317299,799,United States,Indiana,South Bend,243167,4300,75,ASP,1,0.0188406,43.3403861,41.71405029,-86.32089996,9,41.71390152,-86.32879639,88.8,27,41.71419907,-86.31300354,268.8
5457,PHTO,medium_airport,Hilo International Airport,19.721399,-155.048004,38,United States,Hawaii,Hilo,239663,5600,150,ASP,1,1.1706107,201.2297298,19.71834946,-155.0569992,3,19.71249962,-155.0619965,41,21,19.7241993,-155.052002,221
3869,KSBP,medium_airport,San Luis County Regional Airport,35.23680115,-120.6419983,212,United States,California,San Luis Obispo,240432,2500,100,ASP,0,0.0000000,35.2369003,35.23690033,-120.6445007,7,35.23690033,-120.6500015,89.8,25,35.23690033,-120.6389999,269.8
20765,KORL,small_airport,Orlando Executive Airport,28.5455,-81.332901,113,United States,Florida,Orlando,239669,6003,150,ASP,1,0.3835920,59.7439079,28.54610062,-81.33069992,7,28.5428009,-81.33930206,67,25,28.54940033,-81.32209778,247
21045,KSDL,small_airport,Scottsdale Airport,33.6228981,-111.9110031,1510,United States,Arizona,Scottsdale,245196,8249,100,ASP,1,0.8580321,129.6456546,33.62285042,-111.9104996,3,33.61470032,-111.9199982,43.8,21,33.63100052,-111.901001,223.8
3408,KBIL,medium_airport,Billings Logan International Airport,45.807701,-108.542999,3652,United States,Montana,Billings,240074,5501,75,ASP,1,0.0761265,54.0718365,45.80850029,-108.5475006,7,45.80770111,-108.5579987,84,25,45.80929947,-108.5370026,264
21055,KSEZ,small_airport,Sedona Airport,34.84859848,-111.788002,4830,United States,Arizona,Sedona,241376,5129,100,ASP,1,0.7538146,119.1163971,34.84860039,-111.7884979,3,34.84370041,-111.7949982,45.8,21,34.85350037,-111.7819977,225.8
3451,KCID,medium_airport,The Eastern Iowa Airport,41.884701,-91.7108,869,United States,Iowa,Cedar Rapids,242544,8601,150,PER,1,-0.0126750,40.7220298,41.8845005,-91.71340179,9,41.88470078,-91.72920227,91,27,41.88430023,-91.69760132,271
3616,KISP,medium_airport,Long Island Mac Arthur Airport,40.79520035,-73.10019684,99,United States,New York,Islip,245727,7006,150,ASP,1,0.7640377,96.6492294,40.79540062,-73.10349655,6,40.78860092,-73.11239624,45,24,40.80220032,-73.09459686,225
19517,KCMA,large_airport,Camarillo International Airport,34.213699,-119.094002,77,United States,California,Camarillo,243379,6013,150,PEM,1,-0.0049599,33.6230500,34.21374893,-119.093998,8,34.21379852,-119.1039963,90.6,26,34.21369934,-119.0839996,270.6
3911,KSWF,medium_airport,New York Stewart International Airport,41.504101,-74.104797,491,United States,New York,Newburgh,243286,11818,150,ASP,1,0.1563912,53.0941627,41.5041008,-74.1094017,9,41.50080109,-74.13050079,78.3,27,41.50740051,-74.08830261,258.3
3517,KEUG,medium_airport,Mahlon Sweet Field,44.12459946,-123.211998,374,United States,Oregon,Eugene,244486,5228,150,ASP,0,0.7000000,130.3739998,44.12140083,-123.2179985,3,44.11650085,-123.2249985,47,21,44.12630081,-123.2109985,227
3547,KFWA,medium_airport,Fort Wayne International Airport,40.9785,-85.195099,814,United States,Indiana,Fort Wayne,241087,12000,150,PEM,1,0.7790229,107.3453459,40.97450066,-85.19755173,5,40.96269989,-85.21269989,44.3,23,40.98630142,-85.18240356,224.3
3628,KLAL,medium_airport,Lakeland Linder International Airport,27.988899,-82.018602,142,United States,Florida,Lakeland,242495,5000,150,ASP,1,0.8907767,101.0452624,27.98830032,-82.01490021,5,27.98340034,-82.020401,45,23,27.9932003,-82.00939941,225
20805,KPAO,small_airport,Palo Alto Airport of Santa Clara County,37.46110153,-122.1149979,4,United States,California,Palo Alto,239765,2443,70,ASP,1,-0.8835878,-70.4381714,37.46114922,-122.1149979,13,37.46379852,-122.1179962,142,31,37.45849991,-122.1119995,322
21114,KSTS,medium_airport,Charles M. Schulz Sonoma County Airport,38.50899887,-122.8130035,128,United States,California,Santa Rosa,243495,5202,100,ASP,1,1.3885593,209.0474438,38.50945091,-122.8164978,2,38.50320053,-122.8209991,29,20,38.51570129,-122.8119965,209
19292,KAPC,small_airport,Napa County Airport,38.2132,-122.280998,35,United States,California,Napa,240161,5007,150,CON,1,0.2000477,62.6711308,38.20929909,-122.2800026,6,38.20769882,-122.288002,76.7,24,38.21089935,-122.2720032,256.7
3523,KFAR,medium_airport,Hector International Airport,46.92070007,-96.81580353,902,United States,North Dakota,Fargo,240748,6300,100,CON,1,-0.0040872,46.5313492,46.92704964,-96.81470108,9,46.92710114,-96.82730103,90,27,46.92699814,-96.80210114,270
20757,KOPF,medium_airport,Miami-Opa Locka Executive Airport,25.907,-80.278397,8,United States,Florida,Miami,244908,8002,150,ASP,1,0.0493721,29.8766176,25.91319942,-80.27654648,9,25.91259956,-80.28869629,87,27,25.91379929,-80.26439667,267
5360,PAFA,large_airport,Fairbanks International Airport,64.81510162,-147.8560028,439,United States,Alaska,Fairbanks,249539,2900,75,GRVL,0,0.5171756,141.2789580,64.81920242,-147.8410034,2,64.81610107,-147.8470001,38,20,64.82230377,-147.8350067,218
3491,KDLH,medium_airport,Duluth International Airport,46.842098,-92.193604,1428,United States,Minnesota,Duluth,242360,5699,150,ASP,1,1.1173077,149.8383873,46.84244919,-92.18225098,3,46.83580017,-92.1882019,31.5,21,46.84909821,-92.17630005,211.5
3700,KMOB,medium_airport,Mobile Regional Airport,30.6912,-88.242798,219,United States,Alabama,Mobile,244782,8521,150,ASP,1,-1.1949376,-74.7557230,30.69279957,-88.24604797,14,30.70229912,-88.2539978,144,32,30.68330002,-88.23809814,324
3789,KPRC,medium_airport,Prescott International Airport - Ernest A. Love Field,34.654499,-112.419998,5045,United States,Arizona,Prescott,240177,4846,60,ASP,1,1.0003817,147.1194083,34.66150093,-112.4150009,3,34.65650177,-112.4199982,41.3,21,34.66650009,-112.4100037,221.3
3861,KSAC,medium_airport,Sacramento Executive Airport,38.51250076,-121.4929962,24,United States,California,Sacramento,243318,5503,150,ASP,1,1.1542996,178.7537525,38.511549,-121.4954987,2,38.50519943,-121.5009995,33,20,38.51789856,-121.4899979,213
19552,KCRQ,medium_airport,McClellan-Palomar Airport,33.1283,-117.279999,331,United States,California,Carlsbad,241915,4897,150,ASP,1,0.1564139,51.4724756,33.12825012,-117.2800026,6,33.1269989,-117.288002,79.1,24,33.12950134,-117.2720032,259.1
19469,KCCR,small_airport,Buchanan Field,37.98970032,-122.0569992,26,United States,California,Concord,244515,5001,150,PEM,1,1.7868048,256.0811736,37.98824883,-122.0574989,1,37.98199844,-122.060997,23.5,19,37.99449921,-122.0540009,203.5
3398,KBED,medium_airport,Laurence G Hanscom Field,42.47000122,-71.28900146,133,United States,Massachusetts,Bedford,239711,5106,150,ASP,1,0.9741208,111.9151908,42.46900177,-71.29114914,5,42.46340179,-71.29689789,37,23,42.47460175,-71.28540039,217
3663,KMAF,medium_airport,Midland International Airport,31.94249916,-102.2020035,2871,United States,Texas,Midland,243109,4605,75,ASP,1,0.6249205,95.8010795,31.9354496,-102.1980019,4,31.93169975,-102.2040024,54,22,31.93919945,-102.1920013,234
3388,KAVP,medium_airport,Wilkes Barre Scranton International Airport,41.33850098,-75.7233963,962,United States,Pennsylvania,Wilkes-Barre/Scranton,243435,7501,150,ASP,1,1.1766995,130.4419202,41.33735085,-75.7241478,4,41.32870102,-75.73149872,33,22,41.34600067,-75.71679688,213
19293,KAPF,medium_airport,Naples Municipal Airport,26.15259933,-81.77529907,8,United States,Florida,Naples,244830,5290,150,ASP,1,0.9204929,101.4264009,26.15240002,-81.77575302,5,26.14719963,-81.78140259,44,23,26.1576004,-81.77010345,224
19237,KADS,small_airport,Addison Airport,32.96860123,-96.83640289,644,United States,Texas,Dallas,242113,7202,100,ASP,1,-2.2829567,-188.1048682,32.96854973,-96.83644867,15,32.97779846,-96.84049988,160,33,32.95930099,-96.83239746,340
3356,KABE,medium_airport,Lehigh Valley International Airport,40.651773,-75.442797,393,United States,Pennsylvania,Allentown,240632,7600,150,ASP,1,0.6103152,86.6956461,40.6534996,-75.43994904,6,40.64699936,-75.45059967,51.3,24,40.65999985,-75.4292984,231.3
3429,KBTR,medium_airport,Baton Rouge Metropolitan Airport,30.533199,-91.149597,70,United States,Louisiana,Baton Rouge,245596,6900,150,CON,1,0.9139717,113.8397932,30.53259945,-91.14854813,4,30.52569962,-91.15609741,43,22,30.53949928,-91.14099884,223
3619,KJAN,medium_airport,Jackson-Medgar Wiley Evers International Airport,32.311199,-90.075897,346,United States,Mississippi,Jackson,242209,8500,150,ASP,1,-2.1070370,-157.4688441,32.31735039,-90.07254791,16,32.32820129,-90.07769775,158,34,32.30649948,-90.06739807,338
3647,KLNK,medium_airport,Lincoln Airport,40.85100174,-96.75920105,1219,United States,Nebraska,Lincoln,241652,8649,150,PEM,1,-1.0837596,-64.0077914,40.85759926,-96.76074982,14,40.86729813,-96.7696991,145,32,40.84790039,-96.75180054,325
3693,KMLB,medium_airport,Melbourne Orlando International Airport,28.1028,-80.645302,33,United States,Florida,Melbourne,243420,3001,75,ASP,1,0.9690909,106.2408687,28.09894943,-80.63425064,5,28.09589958,-80.63739777,42,23,28.10199928,-80.63110352,222
3854,KROA,medium_airport,Roanoke–Blacksburg Regional Airport,37.3255,-79.975403,1175,United States,Virginia,Roanoke,243346,6800,150,ASP,1,0.6798114,91.6962367,37.32825089,-79.97510147,6,37.32220078,-79.98400116,49.7,24,37.33430099,-79.96620178,229.7
3609,KILM,medium_airport,Wilmington International Airport,34.27059937,-77.90260315,32,United States,North Carolina,Wilmington,245583,8016,200,CON,1,0.7373796,91.7113667,34.26920128,-77.90040207,6,34.26190186,-77.91030121,48.4,24,34.2765007,-77.89050293,228.4
21061,KSGJ,medium_airport,Northeast Florida Regional Airport,29.9592,-81.339798,10,United States,Florida,St Augustine,245386,2614,75,ASP,1,2.2290609,211.2687727,29.95785046,-81.33959961,2,29.9545002,-81.3411026,21,20,29.96120071,-81.33809662,201
21384,KWVI,small_airport,Watsonville Municipal Airport,36.93569946,-121.7900009,163,United States,California,Watsonville,240838,4501,150,ASP,1,1.3129771,196.8443565,36.93424988,-121.7919998,2,36.92900085,-121.7959976,32.3,20,36.9394989,-121.788002,212.3
3466,KCRP,medium_airport,Corpus Christi International Airport,27.770399,-97.501198,44,United States,Texas,Corpus Christi,244379,7508,150,ASP,1,-0.9138012,-61.3308614,27.76959991,-97.50529861,13,27.77700043,-97.51339722,135.8,31,27.7621994,-97.49720001,315.8
20384,KLVK,small_airport,Livermore Municipal Airport,37.69340134,-121.8199997,400,United States,California,Livermore,240972,5253,100,ASP,1,-0.0055085,37.0228091,37.69385147,-121.8199997,7,37.69390106,-121.8290024,91,25,37.69380188,-121.810997,271
21105,KSQL,small_airport,San Carlos Airport,37.51190186,-122.25,5,United States,California,San Carlos,239757,2600,75,ASP,1,-0.8835878,-70.5067565,37.51185036,-122.25,12,37.51449966,-122.2529984,137.5,30,37.50920105,-122.2470016,317.5
3541,KFSD,medium_airport,Sioux Falls Regional Airport / Joe Foss Field,43.585463,-96.741152,1429,United States,South Dakota,Sioux Falls,241268,8999,150,CON,1,1.0462053,144.7968324,43.58275032,-96.74399948,3,43.57260132,-96.75370026,34.9,21,43.59289932,-96.73429871,214.9
3689,KMKC,medium_airport,Charles B. Wheeler Downtown Airport,39.12319946,-94.59279633,759,United States,Missouri,Kansas City,245228,7002,150,CON,1,3.4618644,366.5910995,39.1243515,-94.59259796,1,39.11500168,-94.59529877,12.7,19,39.13370132,-94.58989716,192.7
3857,KRST,medium_airport,Rochester International Airport,43.908298,-92.5,1317,United States,Minnesota,Rochester,244418,7300,150,CON,1,1.4553350,178.5234250,43.90385056,-92.50074768,2,43.89490128,-92.50689697,26,20,43.91279984,-92.49459839,206
3467,KCRW,medium_airport,Yeager Airport,38.3731,-81.593201,981,United States,West Virginia,Charleston,241242,6715,150,ASP,1,0.7331754,98.1979537,38.37549973,-81.59365082,5,38.36959839,-81.60169983,47,23,38.38140106,-81.58560181,227
3530,KFLG,medium_airport,Flagstaff Pulliam International Airport,35.1385,-111.670998,7014,United States,Arizona,Flagstaff,242767,6999,150,ASP,1,0.9666836,143.0894599,35.13844872,-111.6715012,3,35.13119888,-111.6790009,41,21,35.14569855,-111.6640015,221.1
3629,KLAN,medium_airport,Capital City Airport,42.77870178,-84.58740234,861,United States,Michigan,Lansing,241660,5001,120,PEM,1,0.5538660,89.6308156,42.77729988,-84.59359741,6,42.77320099,-84.60099792,53,24,42.78139877,-84.5861969,233
3763,KPAE,medium_airport,Snohomish County (Paine Field) Airport,47.9063,-122.281998,606,United States,Washington,Everett,245252,4514,75,ASP,1,-0.6616784,-33.0042683,47.90609932,-122.2805023,11,47.91040039,-122.2870026,134,29,47.90179825,-122.2740021,314
21410,KXNA,medium_airport,Northwest Arkansas Regional Airport,36.281898,-94.306801,1287,United States,Arkansas,Fayetteville/Springdale/Rogers,239804,8800,150,CON,1,-2.1830521,-169.5947996,36.28185081,-94.30679703,16,36.29320145,-94.31199646,159.7,34,36.27050018,-94.3015976,339.7
3659,KLUK,medium_airport,Cincinnati Municipal Airport Lunken Field,39.10329819,-84.41860199,483,United States,Ohio,Cincinnati,243546,3802,100,ASP,1,1.8445748,194.8263555,39.10440063,-84.42160034,3,39.09960175,-84.42420197,23,21,39.10919952,-84.41899872,203
3788,KPRB,medium_airport,Paso Robles Municipal Airport,35.67290115,-120.6269989,840,United States,California,Paso Robles,243190,6009,150,ASP,1,1.4496568,210.5468936,35.67334938,-120.6310005,1,35.66609955,-120.6360016,28.5,19,35.68059921,-120.6259995,208.5
20578,KMVY,small_airport,Martha's Vineyard Airport,41.39310074,-70.61430359,67,United States,Massachusetts,Martha's Vineyard,245076,3177,75,ASP,0,-9.6652542,-641.1523286,41.39195061,-70.61834717,1,41.38759995,-70.61789703,355.6,19,41.39630127,-70.6187973,175.6
20101,KHWD,small_airport,Hayward Executive Airport,37.65919876,-122.1220016,52,United States,California,Hayward,245013,3107,75,ASP,1,-0.4775424,-20.6583184,37.66034889,-122.1224976,10,37.66249847,-122.1269989,120,28,37.65819931,-122.1179962,300
3545,KFTW,medium_airport,Fort Worth Meacham International Airport,32.819801,-97.362396,710,United States,Texas,Fort Worth,244131,3677,100,ASP,0,-0.1442432,18.7745336,32.8179512,-97.35929871,9,32.81880188,-97.36519623,99.8,27,32.81710052,-97.35340118,279.8
3708,KMSO,medium_airport,Missoula International Airport,46.91630173,-114.0910034,3206,United States,Montana,Missoula,245274,4612,75,ASP,1,0.0104418,48.1073747,46.91609955,-114.0875015,7,46.91600037,-114.0970001,89,25,46.91619873,-114.0780029,269
3961,KNYL,medium_airport,Yuma International Airport / Marine Corps Air Station Yuma,32.656601,-114.606003,213,United States,Arizona,Yuma,242343,13299,200,CON,1,0.8733469,132.7476784,32.64989853,-114.6139984,3,32.63679886,-114.6289978,44.1,21,32.6629982,-114.598999,224.1
3437,KBZN,medium_airport,Gallatin Field,45.77750015,-111.1529999,4473,United States,Montana,Bozeman,245494,2650,75,ASP,0,0.6244042,115.1733012,45.77140045,-111.1489983,3,45.76890182,-111.1529999,46,21,45.77389908,-111.1449966,226
3551,KGCN,medium_airport,Grand Canyon National Park Airport,35.9524,-112.147003,6609,United States,Arizona,Grand Canyon - Tusayan,240186,8999,150,ASP,1,0.9351393,140.8254126,35.95235062,-112.1469994,3,35.94300079,-112.1569977,40.6,21,35.96170044,-112.137001,220.6
3557,KGJT,medium_airport,Grand Junction Regional Airport,39.126663,-108.529387,4858,United States,Colorado,Grand Junction,243644,5502,75,ASP,1,0.5498331,98.7832865,39.11429977,-108.5219994,4,39.10990143,-108.5299988,54.4,22,39.11869812,-108.5139999,234.4
3390,KAZO,medium_airport,Kalamazoo Battle Creek International Airport,42.23490143,-85.55210114,874,United States,Michigan,Kalamazoo,246000,3436,100,ASP,1,0.7451230,105.9861037,42.23814964,-85.55360031,5,42.23479843,-85.55809784,45,23,42.24150085,-85.54910278,225
3794,KPUB,medium_airport,Pueblo Memorial Airport,38.289101,-104.497002,4726,United States,Colorado,Pueblo,241424,10496,150,ASP,1,0.0248993,40.8893321,38.28754997,-104.4920006,8,38.28710175,-104.5100021,88.3,26,38.2879982,-104.473999,268.3
21065,KSGU,medium_airport,St George Regional Airport,37.036389,-113.510306,2941,United States,Utah,St George,340164,9300,150,ASP,1,1.8942189,252.0497100,37.03635025,-113.5102997,1,37.02460098,-113.5165024,23,19,37.04809952,-113.504097,203
3934,KTVL,medium_airport,Lake Tahoe Airport,38.89390182,-119.9950027,6264,United States,California,South Lake Tahoe,243612,8544,150,ASP,1,3.2554466,429.5328408,38.89389992,-119.9954987,18,38.90530014,-119.9919968,192.9,36,38.88249969,-119.9990005,12.9
3950,KVRB,medium_airport,Vero Beach Regional Airport,27.6556,-80.417901,24,United States,Florida,Vero Beach,243598,4974,100,ASP,1,1.2095218,124.9275442,27.6552,-80.42214966,4,27.64970016,-80.42669678,36,22,27.66069984,-80.41760254,216
19331,KAVX,small_airport,Catalina Airport,33.4049,-118.416,1602,United States,California,Avalon,241625,3000,60,ASP,1,0.6125954,105.9459495,33.40485001,-118.4160004,4,33.40240097,-118.4199982,54,22,33.40729904,-118.4120026,234
3561,KGPT,medium_airport,Gulfport Biloxi International Airport,30.407301,-89.070099,28,United States,Mississippi,Gulfport,241635,9002,150,PEM,1,-0.8666415,-46.7874140,30.40625,-89.07220078,14,30.41500092,-89.08229828,135,32,30.39749908,-89.06210327,315
3925,KTOL,medium_airport,Eugene F. Kranz Toledo Express Airport,41.5868,-83.8078,683,United States,Ohio,Toledo,239827,10600,150,ASP,1,0.3164530,68.1098788,41.58705139,-83.81285095,7,41.58140182,-83.83070374,67,25,41.59270096,-83.79499817,247
19672,KDVT,small_airport,Phoenix Deer Valley Airport,33.68830109,-112.0830002,1478,United States,Arizona,Phoenix,243475,4500,75,ASP,1,0.0569482,40.0724712,33.68959999,-112.0819969,7,33.68920135,-112.0889969,86,25,33.68999863,-112.0749969,266
3571,KGTF,medium_airport,Great Falls International Airport,47.48199844,-111.3710022,3680,United States,Montana,Great Falls,245967,10502,150,ASP,1,0.6798881,123.1979602,47.47949982,-111.3689995,3,47.46929932,-111.3840027,45,21,47.48970032,-111.3539963,225
3770,KPHF,medium_airport,Newport News Williamsburg International Airport,37.131901,-76.492996,42,United States,Virginia,Newport News,242823,6526,150,CON,1,3.5724299,310.4131358,37.1331501,-76.49694824,2,37.12440109,-76.49939728,12.8,20,37.14189911,-76.49449921,192.8
3882,KSHV,medium_airport,Shreveport Regional Airport,32.446602,-93.8256,258,United States,Louisiana,Shreveport,242502,6202,150,ASP,1,0.4686138,76.4164888,32.44919968,-93.82415009,6,32.44509888,-93.832901,60.8,24,32.45330048,-93.81539917,240.8
3617,KIWA,medium_airport,Phoenix–Mesa Gateway Airport,33.3078,-111.654999,1382,United States,Arizona,Mesa,243460,10201,150,PEM,1,-0.8694859,-63.7744130,33.30760002,-111.6544991,12,33.31760025,-111.6660004,135.7,30,33.29759979,-111.6429977,315.7
3414,KBKL,medium_airport,Burke Lakefront Airport,41.51750183,-81.6832962,583,United States,Ohio,Cleveland,245428,6198,150,ASP,1,0.4686134,79.7961985,41.51840019,-81.68310165,6,41.51390076,-81.69270325,57.9,24,41.52289963,-81.67350006,237.9
19673,KDWH,small_airport,David Wayne Hooks Memorial Airport,30.0618,-95.55280304,152,United States,Texas,Houston,245436,3987,35,ASP,0,-6.8035714,-620.0336696,30.05844975,-95.5515976,17,30.06389999,-95.55239868,172.8,35,30.0529995,-95.55079651,352.8
19866,KFFZ,small_airport,Falcon Field,33.46080017,-111.7279968,1394,United States,Arizona,Mesa,244568,3799,75,ASP,1,0.6498856,106.0726181,33.46155167,-111.7290001,4,33.45830154,-111.7340012,51.2,22,33.46480179,-111.723999,231.2
3455,KCLL,medium_airport,Easterwood Field,30.58860016,-96.36380005,320,United States,Texas,College Station,243970,5149,150,CON,0,0.7281748,100.7617592,30.58985,-96.3668515,4,30.5853,-96.3731,50,22,30.5944,-96.360603,230
3535,KFNT,medium_airport,Bishop International Airport,42.9654007,-83.74359894,782,United States,Michigan,Flint,243799,7201,150,ASP,1,0.0222632,44.8337620,42.96930122,-83.74635315,9,42.96900177,-83.75980377,88,27,42.96960068,-83.73290253,268
3678,KMFE,medium_airport,McAllen Miller International Airport,26.176141,-98.237965,107,United States,Texas,McAllen,245349,7120,150,ASP,1,-1.0939746,-81.2960542,26.17535019,-98.23939896,13,26.18289948,-98.24629974,140.6,31,26.1678009,-98.23249817,320.6
3360,KACK,medium_airport,Nantucket Memorial Airport,41.25310135,-70.06020355,47,United States,Massachusetts,Nantucket,241297,6303,150,ASP,1,0.7591808,94.4445962,41.25304985,-70.06439972,6,41.24689865,-70.07250214,44.9,24,41.25920105,-70.0562973,224.9
3791,KPSM,medium_airport,Portsmouth International at Pease Airport,43.07789993,-70.82330322,100,United States,New Hampshire,Portsmouth,244494,11321,150,PEM,1,-1.2304852,-44.0690116,43.07795143,-70.82324982,16,43.09130096,-70.83409882,149,34,43.0646019,-70.81240082,329
3459,KCMI,medium_airport,University of Illinois Willard Airport,40.039819,-88.276249,755,United States,Illinois,Savoy,245944,6500,150,CON,1,0.8825436,117.9475180,40.03854942,-88.27775192,4,40.03179932,-88.28540039,40,22,40.04529953,-88.27010345,220
3402,KBFL,medium_airport,Meadows Field,35.433601,-119.056999,510,United States,California,Bakersfield,241920,10857,150,ASP,1,-0.8480317,-65.5296856,35.43569946,-119.0584984,12,35.44630051,-119.0709991,135.4,30,35.42509842,-119.0459976,315.5
3539,KFRG,medium_airport,Republic Airport,40.72880173,-73.41339874,82,United States,New York,Farmingdale,245142,5516,150,ASP,1,-50.7435897,-3684.5832687,40.72935104,-73.41444778,1,40.72180176,-73.41429901,359.2,19,40.73690033,-73.41459656,179.2
20821,KPGA,medium_airport,Page Municipal Airport,36.92610168,-111.447998,4316,United States,Arizona,Page,245890,2201,100,ASP,0,0.1000953,48.0852242,36.92959976,-111.4500008,7,36.92919922,-111.4540024,81.9,25,36.93000031,-111.4459991,261.9
3409,KBIS,medium_airport,Bismarck Municipal Airport,46.77270126,-100.7460022,1661,United States,North Dakota,Bismarck,240514,6600,100,ASP,1,0.8812589,135.5476767,46.76964951,-100.7400017,3,46.76259995,-100.7480011,39,21,46.77669907,-100.7320023,219
3505,KEGE,medium_airport,Eagle County Regional Airport,39.64260101,-106.9179993,6548,United States,Colorado,Eagle,245375,9000,150,ASP,1,0.1107629,51.4851017,39.64254951,-106.9179993,7,39.64099884,-106.9319992,81.9,25,39.64410019,-106.9039993,261.9
3679,KMFR,medium_airport,Rogue Valley International Medford Airport,42.37419891,-122.8730011,1335,United States,Oregon,Medford,243003,3136,100,ASP,1,-0.3404580,0.5387617,42.37220001,-122.8740005,9,42.37390137,-122.8789978,113,27,42.37049866,-122.8690033,293
3929,KTTN,medium_airport,Trenton Mercer Airport,40.27669907,-74.81349945,213,United States,New Jersey,Trenton,240205,6006,150,ASP,1,0.7244499,94.4742986,40.27544975,-74.81380081,6,40.26979828,-74.82160187,47,24,40.28110123,-74.80599976,227
3361,KACT,medium_airport,Waco Regional Airport,31.61129951,-97.23049927,516,United States,Texas,Waco,243726,6596,150,ASP,1,3.3190647,354.3161770,31.61229992,-97.22735214,1,31.60350037,-97.23000336,14.2,19,31.62109947,-97.22470093,194.2
3560,KGON,medium_airport,Groton New London Airport,41.33010101,-72.04509735,9,United States,Connecticut,Groton (New London),241054,5000,150,ASP,1,1.1182635,121.8936436,41.33069992,-72.04290009,5,41.32500076,-72.04799652,34,23,41.33639908,-72.03780365,214
21047,KSEE,small_airport,Gillespie Field,32.82619858,-116.9720001,388,United States,California,San Diego/El Cajon,242524,5342,100,ASP,1,-0.1821445,11.5220568,32.82794952,-116.9724998,9,32.82949829,-116.9810028,102.1,27,32.82640076,-116.9639969,282.1
20928,KRHV,small_airport,Reid-Hillview Airport of Santa Clara County,37.332901,-121.8190002,135,United States,California,San Jose,246013,3100,75,ASP,1,-0.9716467,-81.0324126,37.33309937,-121.8195,13,37.33649826,-121.822998,142.9,31,37.32970047,-121.8160019,322.9
21314,KVCB,small_airport,Nut Tree Airport,38.37680054,-121.961998,117,United States,California,Vacaville,243982,4700,75,ASP,1,1.1885593,183.3362287,38.37774849,-121.9615021,2,38.37239838,-121.9660034,34,20,38.3830986,-121.9570007,214
3518,KEVV,medium_airport,Evansville Regional Airport,38.03699875,-87.53240204,418,United States,Indiana,Evansville,243466,8021,150,ASP,1,1.0117569,126.5956465,38.03930092,-87.52729797,4,38.0306015,-87.5358963,38,22,38.04800034,-87.51869965,218
3538,KFPR,medium_airport,St Lucie County International Airport,27.49510002,-80.36830139,24,United States,Florida,Fort Pierce,245453,6492,150,ASP,1,-0.0099161,26.7002494,27.49720001,-80.36940002,10,27.49729919,-80.37940216,90,28,27.49710083,-80.35939789,270
20296,KL35,small_airport,Big Bear City Airport,34.26380157,-116.8560028,6752,United States,California,Big Bear,242821,5850,75,ASP,1,0.0052209,34.8737327,34.26364899,-116.8544998,8,34.2635994,-116.8639984,90,26,34.26369858,-116.8450012,270
3510,KELM,medium_airport,Elmira Corning Regional Airport,42.15990067,-76.89160156,954,United States,New York,Elmira/Corning,245092,2017,150,GRS,0,0.6024967,88.4866161,42.16214943,-76.88750076,5,42.16040039,-76.89040375,50,23,42.16389847,-76.88459778,230
3681,KMGM,medium_airport,Montgomery Regional (Dannelly Field) Airport,32.300598,-86.393997,221,United States,Alabama,Montgomery,245345,4010,150,ASP,1,1.3151581,145.9168959,32.29959869,-86.3905983,3,32.29499817,-86.39409637,33,21,32.30419922,-86.38710022,213
3893,KSMX,medium_airport,Santa Maria Public Airport Captain G Allan Hancock Field,34.898899,-120.457001,261,United States,California,Santa Maria,244376,5130,75,ASP,0,1.1399695,172.2232453,34.89909935,-120.4630013,2,34.89339828,-120.4680023,35.9,20,34.90480042,-120.4580002,215.9
3558,KGLS,medium_airport,Scholes International At Galveston Airport,29.26530075,-94.86039734,6,United States,Texas,Galveston,242228,3774,150,CON,0,0.2136571,49.5404498,29.2720499,-94.864151,7,29.27079964,-94.87000275,76.3,25,29.27330017,-94.85829926,256.3
3411,KBJC,medium_airport,Rocky Mountain Metropolitan Airport,39.90879822,-105.1169968,5673,United States,Colorado,Denver,241034,3601,75,ASP,1,1.1581243,161.6456068,39.90995026,-105.1144981,3,39.90589905,-105.1179962,34.3,21,39.91400146,-105.1110001,214.3
20054,KHIO,medium_airport,Portland Hillsboro Airport,45.540401,-122.949997,208,United States,Oregon,Portland,239897,4049,100,ASP,1,0.7725381,140.5194842,45.53784943,-122.9475021,2,45.53359985,-122.9530029,40,20,45.542099,-122.9420013,220
21220,KTRK,medium_airport,Truckee Tahoe Airport,39.31999969,-120.1399994,5900,United States,California,Truckee,240909,4650,75,ASP,1,1.3883588,206.1119217,39.32004929,-120.1360016,2,39.3144989,-120.1399994,29.9,20,39.32559967,-120.1320038,209.9
20105,KHXD,small_airport,Hilton Head Airport,32.22439957,-80.69750214,19,United States,South Carolina,Hilton Head Island,241288,4300,100,ASP,1,1.7362500,172.3353449,32.22439957,-80.69744873,3,32.21910095,-80.70050049,26.1,21,32.22969818,-80.69439697,206.1
3363,KACY,medium_airport,Atlantic City International Airport,39.45759964,-74.57720184,75,United States,New Jersey,Atlantic City,241402,6144,150,PEM,1,1.4466667,147.3496184,39.45714951,-74.58004761,4,39.4496994,-74.58519745,27.9,22,39.46459961,-74.57489777,207.9
3368,KAGS,medium_airport,Augusta Regional At Bush Field,33.3699,-81.9645,144,United States,Georgia,Augusta,243252,6001,75,ASP,1,0.1769964,47.8742565,33.36770058,-81.95959854,8,33.36600113,-81.96920013,78,26,33.36940002,-81.94999695,258
3419,KBMI,medium_airport,Central Illinois Regional Airport at Bloomington-Normal,40.4771,-88.915901,871,United States,Illinois,Bloomington/Normal,243260,8000,150,CON,1,2.3647008,250.7238354,40.47450066,-88.91160202,2,40.46409988,-88.91600037,17.9,20,40.48490143,-88.90720367,197.9
3397,KBDR,medium_airport,Igor I Sikorsky Memorial Airport,41.16350174,-73.12619781,9,United States,Connecticut,Bridgeport,242195,4677,150,ASP,1,0.7518916,96.1443373,41.16155052,-73.12595367,6,41.1570015,-73.13200378,45,24,41.16609955,-73.11990356,225
3465,KCPR,medium_airport,Casper-Natrona County International Airport,42.908001,-106.463997,5350,United States,Wyoming,Casper,245905,10164,150,ASP,1,0.7731808,125.2178176,42.90345001,-106.461998,3,42.89339828,-106.4749985,43.9,21,42.91350174,-106.4489975,223.9
3695,KMLI,medium_airport,Quad City International Airport,41.448502,-90.5075,590,United States,Illinois,Moline,239959,4509,150,ASP,1,0.6749380,102.5339934,41.44734955,-90.50704956,5,41.44319916,-90.51319885,49,23,41.45149994,-90.50090027,229
3841,KRDD,medium_airport,Redding Municipal Airport,40.50899887,-122.2929993,505,United States,California,Redding,245865,5067,150,ASP,1,-0.8921756,-68.5984915,40.50655174,-122.2910004,12,40.51190186,-122.2969971,140,30,40.50120163,-122.2850037,320
3933,KTVC,medium_airport,Cherry Capital Airport,44.74140167,-85.5821991,624,United States,Michigan,Traverse City,242058,3204,75,ASP,0,0.5952960,95.6860161,44.73849869,-85.58349991,5,44.7356987,-85.58820343,50.1,23,44.74129868,-85.57879639,230.1
3576,KHFD,medium_airport,Hartford Brainard Airport,41.73669815,-72.6493988,18,United States,Connecticut,Hartford,244772,4417,150,ASP,1,4.7942073,390.0298196,41.73760033,-72.64855194,2,41.73160172,-72.64980316,9,20,41.74359894,-72.64730072,189
19550,KCRG,medium_airport,Jacksonville Executive at Craig Airport,30.3362999,-81.51439667,41,United States,Florida,Jacksonville,243433,4004,100,ASP,1,0.8769297,101.8152400,30.33279991,-81.51445007,5,30.32889938,-81.51889801,45,23,30.33670044,-81.51000214,225
19868,KFHR,small_airport,Friday Harbor Airport,48.52199936,-123.0240021,113,United States,Washington,Friday Harbor,243606,3402,75,ASP,1,-9.3053435,-1096.2633005,48.52194977,-123.0245018,16,48.52659988,-123.0250015,177,34,48.51729965,-123.0240021,357
19320,KATW,small_airport,Appleton International Airport,44.2580986,-88.51909637,918,United States,Wisconsin,Appleton,242981,8002,150,CON,1,1.4595817,173.4601205,44.25875092,-88.51945114,3,44.24890137,-88.52619934,26,21,44.26860046,-88.51270294,206
20702,KO69,small_airport,Petaluma Municipal Airport,38.25780106,-122.6060028,90,United States,California,Petaluma,240682,3600,75,ASP,1,-0.5797101,-32.8175610,38.25780106,-122.6049995,11,38.26070023,-122.6100006,125,29,38.25490189,-122.5999985,305
21181,KTCY,small_airport,Tracy Municipal Airport,37.68899918,-121.4420013,193,United States,California,Tracy,248016,4005,100,ASPH-F,0,0.0073569,38.5839923,37.69054985,-121.4419975,8,37.69049835,-121.4489975,90,26,37.69060135,-121.4349976,270
3928,KTRI,medium_airport,Tri-Cities Regional TN/VA Airport,36.475201,-82.407401,1519,United States,Tennessee,Bristol/Johnson/Kingsport,241224,8030,150,ASP,1,0.8805475,109.0392314,36.47340012,-82.40990067,5,36.46530151,-82.4190979,42.6,23,36.48149872,-82.40070343,222.6
3476,KCYS,medium_airport,Cheyenne Regional Jerry Olson Field,41.15570068,-104.8119965,6159,United States,Wyoming,Cheyenne,245040,9267,150,CON,1,-0.0727168,33.5345556,41.15559959,-104.8045006,9,41.15679932,-104.8209991,95.3,27,41.15439987,-104.788002,275.3
3884,KSJT,medium_airport,San Angelo Regional Mathis Field,31.35770035,-100.4960022,1919,United States,Texas,San Angelo,243879,5939,150,ASP,1,0.9153462,123.3419985,31.3556509,-100.4934998,3,31.34970093,-100.5,43.2,21,31.36160088,-100.4869995,223.2
3948,KVPS,medium_airport,Destin-Fort Walton Beach Airport,30.4832,-86.525398,87,United States,Florida,Valparaiso,245911,10012,300,ASP,1,4.0307517,379.2049667,30.48629951,-86.51454926,1,30.4727993,-86.51789856,12,19,30.49979973,-86.51119995,192
20193,KITH,medium_airport,Ithaca Tompkins Regional Airport,42.49100113,-76.45839691,1099,United States,New York,Ithaca,245794,6601,150,ASP,1,-0.7118534,-11.9362123,42.49099922,-76.45845032,14,42.49729919,-76.46730042,134,32,42.48469925,-76.44960022,314
20053,KHII,medium_airport,Lake Havasu City International Airport,34.571098,-114.358002,783,United States,Arizona,Lake Havasu City,242426,8001,100,ASP,1,-1.4615610,-132.5708237,34.57110023,-114.3584976,14,34.58060074,-114.3649979,149.8,32,34.56159973,-114.3519974,329.8
3746,KOGD,medium_airport,Ogden Hinckley Airport,41.19589996,-112.012001,4473,United States,Utah,Ogden,242782,8103,150,ASP,1,0.7522703,125.4580683,41.19589996,-112.0105019,3,41.18799973,-112.0210037,44.8,21,41.2038002,-112,224.8
20564,KMTH,medium_airport,The Florida Keys Marathon Airport,24.726101,-81.051399,5,United States,Florida,Marathon,241521,5008,100,ASP,1,0.3815211,55.6489531,24.72614956,-81.05134964,7,24.7234993,-81.0582962,67,25,24.72879982,-81.04440308,247
20785,KOXR,medium_airport,Oxnard Airport,34.20080185,-119.2070007,45,United States,California,Oxnard,241017,5953,100,ASP,1,-0.0101068,32.9960000,34.20079994,-119.2070007,7,34.20090103,-119.2170029,90.5,25,34.20069885,-119.1969986,270.5
20679,KO22,small_airport,Columbia Airport,38.03039932,-120.4150009,2118,United States,California,Columbia,241360,2600,100,TURF-G,0,-0.7006543,-46.3404898,38.03055,-120.4174995,11,38.03300095,-120.4209976,134,29,38.02809906,-120.4140015,314
20910,KRBD,small_airport,Dallas Executive Airport,32.68090057,-96.86820221,660,United States,Texas,Dallas,245955,6451,150,PEM,1,-0.8445876,-49.1333105,32.68105125,-96.8690033,13,32.68730164,-96.87640381,135.1,31,32.67480087,-96.86160278,315.1
19905,KFUL,small_airport,Fullerton Municipal Airport,33.87200165,-117.9800034,96,United States,California,Fullerton,241280,3121,75,ASP,1,0.1899314,56.2801518,33.87205124,-117.9799995,6,33.87110138,-117.9850006,77,24,33.8730011,-117.9749985,257
20023,KHAF,small_airport,Half Moon Bay Airport,37.51340103,-122.5009995,66,United States,California,Half Moon Bay,241777,5000,150,ASP,1,-0.8417038,-65.5961033,37.51345062,-122.5010033,12,37.51850128,-122.5070038,137,30,37.50839996,-122.4950027,317
3543,KFSM,medium_airport,Fort Smith Regional Airport,35.336601,-94.367401,469,United States,Arkansas,Fort Smith,239846,5002,150,ASP,1,2.1321474,236.5415573,35.33869934,-94.36629868,1,35.33229828,-94.36930084,21,19,35.3451004,-94.36329651,201
3600,KHYA,medium_airport,Barnstable Municipal Boardman Polando Field,41.66930008,-70.28040314,54,United States,Massachusetts,Hyannis,246020,5425,150,ASP,1,0.6315261,86.0500225,41.66939926,-70.27519989,6,41.66460037,-70.28279877,49.7,24,41.67419815,-70.26760101,229.7
3606,KIDA,medium_airport,Idaho Falls Regional Airport,43.514599,-112.070999,4744,United States,Idaho,Idaho Falls,244842,9002,150,ASP,1,0.9287791,147.6046998,43.51224899,-112.074501,2,43.50249863,-112.0849991,38,20,43.52199936,-112.064003,218
3701,KMOD,medium_airport,Modesto City Co-Harry Sham Field,37.625801,-120.954002,97,United States,California,Modesto,245192,5911,150,ASP,1,-0.5352334,-27.1121310,37.62515068,-120.9514999,10,37.62969971,-120.9599991,124.2,28,37.62060165,-120.9430008,304.2
3773,KPIA,medium_airport,General Wayne A. Downing Peoria International Airport,40.6642,-89.693298,660,United States,Illinois,Peoria,240100,8003,150,ASP,1,0.9552966,126.3390442,40.66259956,-89.68569946,4,40.65399933,-89.69470215,38.5,22,40.6711998,-89.67669678,218.5
3603,KIAG,medium_airport,Niagara Falls International Airport,43.1073,-78.946198,589,United States,New York,Niagara Falls,242796,5189,150,ASP,1,0.6105991,91.3059058,43.10555077,-78.93944931,6,43.10100174,-78.94689941,50,24,43.11009979,-78.93199921,230
20160,KIFP,medium_airport,Laughlin Bullhead International Airport,35.157398,-114.559998,701,United States,Arizona,Bullhead City,244190,7520,150,ASP,1,-20.6145038,-2326.4298066,35.15740013,-114.5594978,16,35.16770172,-114.5599976,176.5,34,35.14709854,-114.5589981,356.5
21204,KTMB,medium_airport,Miami Executive Airport,25.6479,-80.4328,8,United States,Florida,Miami,245882,5001,150,ASP,1,0.0460361,29.3557500,25.65294933,-80.43249893,9,25.65259933,-80.44010162,87,27,25.65329933,-80.42489624,267
19476,KCDW,small_airport,Essex County Airport,40.87519836,-74.28140259,173,United States,New Jersey,Caldwell,244339,4553,80,ASP,1,1.3328625,139.8812278,40.87320137,-74.28224945,4,40.86780167,-74.28630066,30.1,22,40.87860107,-74.27819824,210.1
19829,KF70,small_airport,French Valley Airport,33.5742,-117.127998,1350,United States,California,Murrieta,243807,6000,75,ASP,1,3.2213740,410.8888538,33.57415009,-117.1284981,18,33.5821991,-117.1259995,192.4,36,33.56610107,-117.1309967,12.4
20892,KPWA,small_airport,Wiley Post Airport,35.53419876,-97.64710236,1300,United States,Oklahoma,Oklahoma City,245409,4213,100,CON,1,-0.8196034,-44.5009708,35.53100014,-97.64719772,13,35.53509903,-97.65219879,135.1,31,35.52690125,-97.64219666,315.1
21209,KTOA,small_airport,Zamperini Field,33.80339813,-118.3399963,103,United States,California,Torrance,243836,5001,150,PEM,1,-0.6616784,-44.4988912,33.80380058,-118.3395004,11,33.80810165,-118.3460007,128.5,29,33.79949951,-118.3330002,308.5
3442,KCDC,medium_airport,Cedar City Regional Airport,37.70100021,-113.098999,5622,United States,Utah,Cedar City,245261,8653,150,ASP,1,1.1530521,168.1100162,37.70040131,-113.0995026,2,37.69060135,-113.1080017,34.3,20,37.71020126,-113.0910034,214.3
3525,KFAY,medium_airport,Fayetteville Regional Airport - Grannis Field,34.991199,-78.880302,189,United States,North Carolina,Fayetteville,239689,7712,150,ASP,1,1.3686173,142.9504152,34.99339867,-78.88035202,4,34.98429871,-78.88700104,31.2,22,35.00249863,-78.873703,211.2
5379,PAJN,medium_airport,Juneau International Airport,58.35499954,-134.576004,21,United States,Alaska,Juneau,240964,8457,150,ASP,1,-0.1371054,39.9037909,58.35494995,-134.5764999,8,58.35789871,-134.5980072,105,26,58.35200119,-134.5549927,285
3648,KLNS,medium_airport,Lancaster Airport,40.12170029,-76.2960968,403,United States,Pennsylvania,Lancaster,245503,6934,150,ASP,1,0.3131012,64.0108020,40.12350082,-76.29259872,8,40.11989975,-76.30410004,68,26,40.1271019,-76.28109741,248
20822,KPGD,medium_airport,Charlotte County Airport,26.9202,-81.990501,26,United States,Florida,Punta Gorda,254614,6695,150,ASPH-G,0,1.6096491,158.8887876,26.91944981,-81.9864006,4,26.91139984,-81.99140167,29,22,26.92749977,-81.98139954,209
3786,KPOU,medium_airport,Dutchess County Airport,41.62659836,-73.88420105,165,United States,New York,Poughkeepsie,241590,5001,100,ASP,1,0.6128426,86.9060599,41.62624931,-73.88489914,6,41.62189865,-73.89199829,50.7,24,41.63059998,-73.87779999,230.7
3546,KFTY,medium_airport,Fulton County Airport Brown Field,33.77909851,-84.52140045,841,United States,Georgia,Atlanta,242633,5796,100,ASP,1,0.1489448,46.3690208,33.78010178,-84.52069855,8,33.77870178,-84.53009796,79.7,26,33.78150177,-84.51129913,259.7
3874,KSDM,medium_airport,Brown Field Municipal Airport,32.57229996,-116.9800034,526,United States,California,San Diego,242992,7972,150,PEM,1,-0.0839438,22.7529585,32.57275009,-116.9804993,8,32.57379913,-116.9929962,95.6,26,32.57170105,-116.9680023,275.6
3902,KSSI,medium_airport,St Simons Island Airport,31.1518,-81.391296,19,United States,Georgia,St Simons Island,243656,5800,100,ASP,1,1.1725035,126.5862781,31.15165043,-81.39389801,4,31.14520073,-81.3993988,36,22,31.15810013,-81.38839722,216
19492,KCHD,small_airport,Chandler Municipal Airport,33.2691,-111.810997,1243,United States,Arizona,Chandler,244619,4401,75,ASP,1,0.7090846,112.5539394,33.26799965,-111.8144989,4,33.26409912,-111.8199997,49.6,22,33.27190018,-111.8089981,229.6
19854,KFDK,small_airport,Frederick Municipal Airport,39.41759872,-77.3742981,303,United States,Maryland,Frederick,243278,5220,100,ASP,1,0.9084552,109.7062261,39.41505051,-77.37440109,5,39.4095993,-77.38040161,40,23,39.42050171,-77.36840057,220
19861,KFFA,small_airport,First Flight Airport,36.01819992,-75.6713028,13,United States,North Carolina,Kill Devil Hills,241793,3000,60,ASP,0,1.7840290,171.0183204,36.01834869,-75.67139816,2,36.01459885,-75.67350006,24,20,36.02209854,-75.66929626,204
19670,KDVO,small_airport,Marin County Airport - Gnoss Field,38.14360046,-122.5559998,2,United States,California,Novato,244790,3300,75,ASP,1,-1.3002545,-121.2103839,38.14360046,-122.5559998,13,38.14749908,-122.5589981,148,31,38.13970184,-122.5530014,328
20712,KOCF,small_airport,Ocala International Airport - Jim Taylor Field,29.17259979,-82.22419739,90,United States,Florida,Ocala,242728,3010,50,ASP,0,0.1505332,41.5579572,29.18009949,-82.22674942,8,29.17939949,-82.23139954,80,26,29.18079948,-82.2220993,260
3369,KAHN,medium_airport,Athens Ben Epps Airport,33.94860077,-83.32630157,808,United States,Georgia,Athens,239700,4000,100,ASP,1,2.1915584,216.5540825,33.94784927,-83.32254791,2,33.94269943,-83.32489777,21,20,33.95299911,-83.32019806,201
3426,KBRO,medium_airport,Brownsville South Padre Island International Airport,25.90679932,-97.42590332,22,United States,Texas,Brownsville,244285,3000,75,ASP,0,-0.9219309,-63.9093469,25.90995026,-97.4251976,13,25.91290092,-97.42839813,135.4,31,25.90699959,-97.42199707,315.4
3654,KLSE,medium_airport,La Crosse Regional Airport,43.879002,-91.256699,655,United States,Wisconsin,La Crosse,241649,5299,150,ASP,1,0.9830128,133.5795560,43.87584877,-91.25385284,4,43.86999893,-91.25980377,36,22,43.88169861,-91.24790192,216
3758,KOSU,medium_airport,The Ohio State University Airport - Don Scott Field,40.0798,-83.072998,905,United States,Ohio,Columbus,241305,3555,100,ASP,1,0.6734940,96.0291033,40.0795002,-83.07365036,5,40.07630157,-83.07839966,48.7,23,40.08269882,-83.06890106,228.7
19491,KCGZ,small_airport,Casa Grande Municipal Airport,32.954899,-111.766998,1464,United States,Arizona,Casa Grande,244088,5200,100,ASP,1,0.4799084,86.5925889,32.95490074,-111.7665024,5,32.95130157,-111.7740021,59.9,23,32.95849991,-111.7590027,239.9
3845,KRFD,medium_airport,Chicago Rockford International Airport,42.1954,-89.097198,742,United States,Illinois,Chicago/Rockford,243205,8199,150,ASP,1,8.0000000,754.9146996,42.19469833,-89.09000015,1,42.18349838,-89.09140015,5,19,42.20589828,-89.08860016,185
3591,KHRL,medium_airport,Valley International Airport,26.22850037,-97.65440369,36,United States,Texas,Harlingen,241974,7257,150,ASP,1,-0.9223671,-63.8488643,26.22605038,-97.65625,13,26.23320007,-97.66400146,135.6,31,26.21890068,-97.64849854,315.6
20870,KPSC,medium_airport,Tri Cities Airport,46.26470184,-119.1190033,410,United States,Washington,Pasco,243330,7711,150,ASP,1,0.6997821,129.6231385,46.26334953,-119.1225014,3,46.25600052,-119.1330032,46,21,46.27069855,-119.1119995,226
3756,KORH,medium_airport,Worcester Regional Airport,42.2673,-71.875702,1009,United States,Massachusetts,Worcester,242172,7000,150,ASP,1,-0.0504140,38.6430000,42.26664925,-71.87789917,11,42.26729965,-71.89080048,93.9,29,42.26599884,-71.86499786,273.9
3487,KDET,medium_airport,Coleman A. Young Municipal Airport,42.40919876,-83.00990295,626,United States,Michigan,Detroit,244267,4025,100,ASP,1,0.3083764,68.0029807,42.4049511,-83.00905228,7,42.4029007,-83.01570129,68,25,42.4070015,-83.00240326,248
3357,KABI,medium_airport,Abilene Regional Airport,32.41130066,-99.68190002,1791,United States,Texas,Abilene,243999,3678,100,ASP,1,0.6594968,98.1679992,32.42270088,-99.69010162,4,32.41960144,-99.69480133,52,22,32.42580032,-99.68540192,232
20506,KMHR,medium_airport,Sacramento Mather Airport,38.553902,-121.297997,98,United States,California,Sacramento,239763,6040,150,ASP,0,0.5704668,107.7534751,38.55784988,-121.2965012,4,38.5530014,-121.3050003,54.2,22,38.56269836,-121.288002,234.2
3872,KSCK,medium_airport,Stockton Metropolitan Airport,37.89419937,-121.237999,33,United States,California,Stockton,245048,10650,150,ASP,1,-0.6139174,-36.5357953,37.89340019,-121.2364998,11,37.90230179,-121.2509995,127.6,29,37.8844986,-121.2220001,307.6
3504,KEEN,medium_airport,Dillant Hopkins Airport,42.898399,-72.270798,488,United States,New Hampshire,Keene,240901,6201,100,ASP,1,13.1088235,990.2737324,42.89579964,-72.27024841,2,42.88729858,-72.27089691,3.2,20,42.90430069,-72.26959991,183.2
19324,KAUN,small_airport,Auburn Municipal Airport,38.95479965,-121.0820007,1539,United States,California,Auburn,244159,3700,75,ASP,1,0.0768779,48.2632950,38.95479965,-121.0814972,7,38.95429993,-121.0879974,84,25,38.95529938,-121.0749969,264
19525,KCNO,small_airport,Chino Airport,33.97470093,-117.637001,650,United States,California,Chino,245515,6023,150,ASP,1,0.8784741,137.3150287,33.9748497,-117.6359978,3,33.96870041,-117.6429977,44.4,21,33.98099899,-117.6289978,224.4
10699,3O8,small_airport,Harris Ranch Airport,36.247813,-120.238323,470,United States,California,Coalinga,247638,2820,30,ASPH-F,1,-1.7509542,-174.2831307,36.24809837,-120.237999,14,36.25159836,-120.2399979,,32,36.24459839,-120.2360001,
20041,KHEF,small_airport,Manassas Regional Airport/Harry P. Davis Field,38.72140121,-77.51540375,192,United States,Virginia,Manassas,241846,5700,100,ASP,1,-1.3882399,-68.8869883,38.72089958,-77.51390076,16,38.72769928,-77.51879883,150.6,34,38.71409988,-77.50900269,330.6
3553,KGFK,medium_airport,Grand Forks International Airport,47.949299,-97.176102,845,United States,North Dakota,Grand Forks,249757,4206,100,CONC-G,0,0.0000000,47.9524002,47.95240021,-97.17634964,9,47.95240021,-97.18489838,90,27,47.95240021,-97.1678009,270
3891,KSLN,medium_airport,Salina Municipal Airport,38.79100037,-97.65219879,1288,United States,Kansas,Salina,243504,3648,75,ASP,0,0.6875994,105.9344720,38.78950119,-97.65129852,4,38.78620148,-97.65609741,49,22,38.7928009,-97.64649963,229
3907,KSUS,medium_airport,Spirit of St Louis Airport,38.662102,-90.652,463,United States,Missouri,St Louis,244558,5000,75,ASP,1,0.1685892,53.9497940,38.66555023,-90.65969849,8,38.66410065,-90.66829681,78,26,38.66699982,-90.65110016,258
3937,KTYR,medium_airport,Tyler Pounds Regional Airport,32.35409927,-95.40239716,544,United States,Texas,Tyler,245633,7200,150,ASP,1,0.8487512,113.3258417,32.35290146,-95.40245056,4,32.34590149,-95.41069794,45.1,22,32.35990143,-95.39420319,225.1
3923,KTIX,medium_airport,Space Coast Regional Airport,28.51479912,-80.79920197,34,United States,Florida,Titusville,240788,5000,100,ASP,1,0.0128362,29.5524016,28.51520061,-80.80289841,9,28.51510048,-80.81069946,89.1,27,28.51530075,-80.79509735,269.1
20981,KRYY,medium_airport,Cobb County International Airport-McCollum Field,34.01316,-84.59721,1040,United States,Georgia,Atlanta,245455,6305,75,ASP,1,0.0192590,35.6424533,34.01320076,-84.59700012,9,34.01300049,-84.60739899,88.8,27,34.01340103,-84.58660126,268.8
19882,KFMY,medium_airport,Page Field,26.58659935,-81.86329651,17,United States,Florida,Fort Myers,241807,6406,150,ASP,1,0.8136507,93.1944797,26.58590031,-81.86384964,5,26.57999992,-81.87110138,48,23,26.59180069,-81.8565979,228
21222,KTRM,medium_airport,Jacqueline Cochran Regional Airport,33.62670135,-116.1600037,-115,United States,California,Palm Springs,245474,4995,100,ASP,1,-0.8083280,-60.2740749,33.62534904,-116.1649971,12,33.63019943,-116.1709976,135,30,33.62049866,-116.1589966,315
20401,KLZU,small_airport,Gwinnett County Briscoe Field,33.97809982,-83.96240234,1061,United States,Georgia,Lawrenceville,242751,6000,100,ASP,1,0.4125000,68.6125192,33.97805023,-83.96234894,7,33.97439957,-83.97119904,64,25,33.9817009,-83.95349884,244
19850,KFCM,small_airport,Flying Cloud Airport,44.82720184,-93.45709991,906,United States,Minnesota,Minneapolis,241760,3898,75,ASP,1,-0.1397306,31.7697281,44.82854843,-93.45709991,10,44.82949829,-93.46389771,101,28,44.82759857,-93.45030212,281
19310,KASH,small_airport,Nashua Airport / Boire Field,42.7817,-71.514801,199,United States,New Hampshire,Nashua,244293,5501,100,ASP,1,-0.4684605,9.2799120,42.78174973,-71.51475143,14,42.78580093,-71.52339935,123,32,42.77769852,-71.50610352,303
3599,KHVN,medium_airport,Tweed New Haven Airport,41.26369858,-72.88680267,12,United States,Connecticut,New Haven,246005,5600,150,ASP,1,15.3091603,1157.1132203,41.26375008,-72.88769913,2,41.2560997,-72.88819885,3,20,41.27140045,-72.8871994,183
3614,KIPT,medium_airport,Williamsport Regional Airport,41.2417984,-76.9210968,529,United States,Pennsylvania,Williamsport,242252,6474,150,ASP,1,0.1745503,54.6676239,41.24069977,-76.92295074,9,41.23870087,-76.93440247,77,27,41.24269867,-76.91149902,257
3957,KYIP,medium_airport,Willow Run Airport,42.23789978,-83.53040314,716,United States,Michigan,Detroit,245083,6655,160,ASP,1,0.6984228,100.5796342,42.238451,-83.53275299,5,42.23220062,-83.54170227,47,23,42.24470139,-83.52380371,227
21300,KUNV,medium_airport,University Park Airport,40.849374,-77.84852,1239,United States,Pennsylvania,State College,243589,6701,150,ASP,1,0.5780691,85.8511854,40.84994888,-77.84749985,6,40.8443985,-77.85710144,52.6,24,40.85549927,-77.83789825,232.6
20161,KIGM,medium_airport,Kingman Airport,35.259499,-113.938004,3449,United States,Arizona,Kingman,240778,6826,150,ASP,1,0.8252265,129.2844084,35.25810051,-113.9399986,3,35.25149918,-113.947998,44.9,21,35.26470184,-113.9319992,224.9
3554,KGFL,medium_airport,Floyd Bennett Memorial Airport,43.34120178,-73.61029816,328,United States,New York,Glens Falls,239838,5000,150,ASP,1,-27.6230769,-1989.9631812,43.34255028,-73.60895157,1,43.33570099,-73.60870361,358.4,19,43.34939957,-73.60919952,178.4
3895,KSNS,medium_airport,Salinas Municipal Airport,36.66279984,-121.6060028,85,United States,California,Salinas,243198,6004,150,ASP,1,-0.0951689,25.0885514,36.66189957,-121.6085014,8,36.66289902,-121.6190033,96.8,26,36.66090012,-121.5979996,276.8
3698,KMMU,medium_airport,Morristown Municipal Airport,40.79940033,-74.41490173,187,United States,New Jersey,Morristown,239834,5999,150,ASP,1,1.0477764,118.7677800,40.79974937,-74.41284943,5,40.79309845,-74.41919708,36.1,23,40.8064003,-74.40650177,216.1
3837,KRAL,medium_airport,Riverside Municipal Airport,33.9519,-117.445,819,United States,California,Riverside,244998,5401,100,ASP,1,-0.1998654,10.4793065,33.95219994,-117.4435005,9,33.95389938,-117.4520035,103.1,27,33.95050049,-117.4349976,283.1
19388,KBLH,medium_airport,Blythe Airport,33.61920166,-114.7170029,399,United States,California,Blythe,239674,6543,150,ASP,1,-0.0045092,33.0992695,33.61655045,-114.7169991,8,33.61660004,-114.7279968,90.2,26,33.61650085,-114.7060013,270.2
21375,KWJF,medium_airport,General WM J Fox Airfield,34.74110031,-118.2190018,2351,United States,California,Lancaster,242951,7201,150,ASP,1,0.2651741,66.0895372,34.74104881,-118.218502,6,34.73799896,-118.2300034,72.1,24,34.74409866,-118.2070007,252.1
3839,KRBL,medium_airport,Red Bluff Municipal Airport,40.15069962,-122.2519989,352,United States,California,Red Bluff,241916,5700,100,ASP,1,-3.8263359,-427.6265596,40.15065002,-122.2519989,15,40.15829849,-122.2539978,168.1,33,40.14300156,-122.25,348.1
19456,KC83,small_airport,Byron Airport,37.82647,-121.621699,79,United States,California,Byron,240844,3000,75,ASP,1,0.4113656,87.8566924,37.82415009,-121.6254997,5,37.82229996,-121.6299973,63.2,23,37.82600021,-121.6210022,243.2
19661,KDTS,small_airport,Destin Executive Airport,30.40010071,-86.47149658,23,United States,Florida,Destin,242406,4999,100,ASP,1,-1.1232311,-66.7273754,30.40005016,-86.47145081,14,30.40550041,-86.4763031,142,32,30.39459991,-86.46659851,322
20325,KLCI,small_airport,Laconia Municipal Airport,43.572701,-71.4189,545,United States,New Hampshire,Laconia / Gilford,243949,5286,100,ASP,1,0.2989221,64.9214344,43.57275009,-71.41889954,8,43.56999969,-71.42810059,67.5,26,43.57550049,-71.40969849,247.5
20398,KLXV,small_airport,Lake County Airport,39.22029877,-106.3170013,9927,United States,Colorado,Leadville,241019,6400,75,ASP,1,-5.7697201,-574.1970065,39.21945,-106.3165016,16,39.22809982,-106.3180008,170.3,34,39.21080017,-106.3150024,350.3
20885,KPVC,small_airport,Provincetown Municipal Airport,42.07189941,-70.2213974,9,United States,Massachusetts,Provincetown,241474,3500,100,ASP,1,0.4412371,73.0562526,42.07225037,-70.22075272,7,42.06980133,-70.2263031,59,25,42.0746994,-70.21520233,239
21115,KSUA,small_airport,Witham Field,27.18169975,-80.22109985,16,United States,Florida,Stuart,242853,4652,100,ASP,1,0.3534137,55.5357225,27.18404961,-80.22234726,7,27.18169975,-80.22899628,68,25,27.18639946,-80.21569824,248
3464,KCOU,medium_airport,Columbia Regional Airport,38.8181,-92.219597,889,United States,Missouri,Columbia,244042,6501,150,CON,1,2.0000000,223.2526016,38.81349945,-92.21955109,2,38.80519867,-92.22370148,21,20,38.82180023,-92.2154007,201
3702,KMOT,medium_airport,Minot International Airport,48.25939941,-101.2799988,1716,United States,North Dakota,Minot,241076,6350,100,ASP,1,0.0000000,48.2579994,48.25799942,-101.2779999,8,48.25799942,-101.2910004,90.3,26,48.25799942,-101.2649994,270.3
3393,KBAF,medium_airport,Westfield-Barnes Regional Airport,42.157799,-72.715599,271,United States,Massachusetts,Westfield/Springfield,244252,9000,150,ASP,1,4.1149871,341.3822383,42.15745163,-72.71585083,2,42.14530182,-72.71880341,10.1,20,42.16960144,-72.71289825,190.1
3699,KMMV,medium_airport,Mc Minnville Municipal Airport,45.19440079,-123.1360016,163,United States,Oregon,Mc Minnville,246010,5420,150,ASP,1,0.4703903,103.1194262,45.19579887,-123.1394997,4,45.19179916,-123.1480026,57,22,45.19979858,-123.1309967,237
3793,KPTK,medium_airport,Oakland County International Airport,42.66550064,-83.42009735,980,United States,Michigan,Pontiac,242261,2451,75,ASP,0,0.8494282,113.5156899,42.66394997,-83.41109848,4,42.66139984,-83.41410065,41,22,42.66650009,-83.40809631,221
20896,KPWK,medium_airport,Chicago Executive Airport,42.114222,-87.901494,647,United States,Illinois,Chicago/Prospect Heights/Wheeling,244856,3660,50,ASP,1,0.3720050,74.8121255,42.11275101,-87.90035248,6,42.11050034,-87.90640259,63,24,42.11500168,-87.89430237,243
19648,KDPA,medium_airport,Dupage Airport,41.90779877,-88.24859619,759,United States,Illinois,Chicago/West Chicago,243722,7570,100,CON,1,3.0153759,308.0114797,41.90410042,-88.25015259,2,41.89400101,-88.25350189,14,20,41.91419983,-88.24680328,194
19498,KCIC,small_airport,Chico Municipal Airport,39.79539871,-121.8580017,240,United States,California,Chico,243894,6724,150,ASP,1,-1.1998239,-106.4119450,39.79559898,-121.8574982,13,39.80339813,-121.8639984,147.4,31,39.78779984,-121.8509979,327.4
20947,KRNT,small_airport,Renton Municipal Airport,47.49309921,-122.2160034,32,United States,Washington,Renton,244585,5382,200,ASPH-CONC-G,1,-7.3250951,-847.7506637,47.49315071,-122.2159996,16,47.50049973,-122.2170029,174,34,47.4858017,-122.2149963,354
19688,KE16,small_airport,San Martin Airport,37.08160019,-121.5970001,281,United States,California,San Martin,243355,3100,75,ASP,1,-1.9503817,-200.0789611,37.08160019,-121.5970001,14,37.08549881,-121.598999,156,32,37.07770157,-121.5950012,336
20979,KRYN,small_airport,Ryan Field,32.14220047,-111.1750031,2417,United States,Arizona,Tucson,245630,4900,75,ASP,0,0.3286104,68.6767572,32.14350128,-111.1749992,6,32.14120102,-111.1819992,70.3,24,32.14580154,-111.1679993,250.3
21331,KVNC,small_airport,Venice Municipal Airport,27.07159996,-82.44029999,18,United States,Florida,Venice,242761,5000,150,ASP,1,0.8896081,100.4104886,27.07194996,-82.43915176,4,27.06710052,-82.44460297,45,22,27.07679939,-82.43370056,225
19952,KGIF,small_airport,Winter Haven Regional Airport - Gilbert Field,28.062901,-81.753304,145,United States,Florida,Winter Haven,240668,4001,100,ASP,0,-0.2066520,11.1676338,28.06235027,-81.75444794,11,28.06360054,-81.76049805,103,29,28.06110001,-81.74839783,283
3515,KERI,medium_airport,Erie International Tom Ridge Field,42.083127,-80.173867,732,United States,Pennsylvania,Erie,244531,3508,150,ASP,1,4.3246528,388.8291175,42.08234978,-80.17910004,2,42.07759857,-80.18019867,10.1,20,42.08710098,-80.1780014,190.1
3582,KHLN,medium_airport,Helena Regional Airport,46.6068,-111.983002,3877,United States,Montana,Helena,241172,4644,75,ASP,1,0.3187887,82.3089821,46.60814857,-111.9890022,5,46.60559845,-111.9970016,66,23,46.6106987,-111.9810028,246
3587,KHOT,medium_airport,Memorial Field Airport,34.4788,-93.096262,540,United States,Arkansas,Hot Springs,242200,6595,150,ASP,1,0.5955851,89.9257233,34.47830009,-93.09740067,5,34.47299957,-93.10630035,54.1,23,34.48360062,-93.08850098,234.2
3651,KLRD,medium_airport,Laredo International Airport,27.54380035,-99.46160126,508,United States,Texas,Laredo,243626,5928,150,CON,1,-1.3945644,-111.1632140,27.54259968,-99.46175003,14,27.54949951,-99.46669769,147.3,32,27.53569984,-99.45680237,327.3
3697,KMLU,medium_airport,Monroe Regional Airport,32.510899,-92.037697,79,United States,Louisiana,Monroe,244202,7507,150,PEM,1,0.8485588,110.6097169,32.51099968,-92.03689957,4,32.50370026,-92.04550171,45,22,32.5182991,-92.02829742,225
3676,KMER,medium_airport,Castle Airport,37.38050079,-120.5680008,191,United States,California,Merced,243561,11802,150,PEM,1,-0.9691901,-79.4728169,37.38050079,-120.5680008,13,37.39310074,-120.5810013,141,31,37.36790085,-120.5550003,321
3578,KHHR,medium_airport,Jack Northrop Field Hawthorne Municipal Airport,33.922798,-118.334999,66,United States,California,Hawthorne,241199,4956,100,CON,1,0.0436338,39.0862511,33.92284966,-118.3350029,7,33.92250061,-118.3430023,86.7,25,33.9231987,-118.3270035,266.7
21062,KSGR,medium_airport,Sugar Land Regional Airport,29.62229919,-95.65650177,82,United States,Texas,Houston,239749,8000,100,CON,1,-10.4381818,-968.8582256,29.6222496,-95.65655136,17,29.63319969,-95.6576004,175.3,35,29.61129951,-95.65550232,355.3
20184,KIPL,medium_airport,Imperial County Airport,32.83420181,-115.5790024,-54,United States,California,Imperial,243604,4500,75,ASP,1,0.0000000,32.8320999,32.83209991,-115.5824966,8,32.83209991,-115.5899963,90,26,32.83209991,-115.5749969,270
21213,KTOP,medium_airport,Philip Billard Municipal Airport,39.069899,-95.622606,881,United States,Kansas,Topeka,241251,3002,100,ASP,1,0.6749285,103.6066525,39.06809998,-95.62279892,4,39.06539917,-95.62680054,49.1,22,39.07080078,-95.6187973,229.1
20972,KRVS,medium_airport,Richard Lloyd Jones Jr Airport,36.03960037,-95.98459625,638,United States,Oklahoma,Tulsa,243377,5103,100,ASP,1,3.4017176,362.5567249,36.03980064,-95.98590088,1,36.03300095,-95.98789978,13.3,19,36.04660034,-95.98390198,193.3
19654,KDRO,small_airport,Durango La Plata County Airport,37.1515007,-107.7539978,6685,United States,Colorado,Durango,257623,9201,150,ASPH-G,0,1.0580321,151.1582153,37.15154839,-107.7535019,3,37.14149857,-107.7630005,37,21,37.16159821,-107.7440033,217
20493,KMEV,small_airport,Minden-Tahoe Airport,39.00030136,-119.7509995,4722,United States,Nevada,Minden,251680,5300,75,ASPH-G,0,-0.7356948,-49.1005775,39.00035095,-119.7520027,12,39.00550079,-119.7590027,135,30,38.99520111,-119.7450027,315
20199,KIXD,small_airport,New Century Aircenter Airport,38.83089828,-94.89029694,1087,United States,Kansas,Olathe,244224,5130,100,ASP,1,0.7267475,107.7929847,38.83300018,-94.88850021,4,38.82820129,-94.89510345,47,22,38.83779907,-94.88189697,227
20829,KPHK,small_airport,Palm Beach County Glades Airport,26.78499985,-80.69339752,16,United States,Florida,Pahokee,239737,1617,100,ASP,0,0.4227504,60.8989710,26.78594971,-80.69305038,7,26.78499985,-80.69529724,64,25,26.78689957,-80.69080353,244
20887,KPVF,small_airport,Placerville Airport,38.7242012,-120.7529984,2585,United States,California,Placerville,245153,4201,75,ASP,1,0.3999413,87.0185136,38.7241993,-120.7535019,5,38.72159958,-120.7600021,62.9,23,38.72679901,-120.7470016,242.9
3468,KCSG,medium_airport,Columbus Metropolitan Airport,32.5163002,-84.93890381,397,United States,Georgia,Columbus,243477,6997,150,ASP,1,0.6175980,84.9732455,32.51684952,-84.9361496,6,32.51119995,-84.94529724,53.8,24,32.52249908,-84.92700195,233.8
3501,KEAU,medium_airport,Chippewa Valley Regional Airport,44.86579895,-91.48429871,913,United States,Wisconsin,Eau Claire,241342,8101,150,CON,1,0.7103901,109.8548023,44.86714935,-91.48164749,4,44.85929871,-91.49269867,45,22,44.875,-91.47059631,225
3366,KAFW,medium_airport,Fort Worth Alliance Airport,32.99044,-97.31947,722,United States,Texas,Fort Worth,242705,11000,150,CONC-GRVD,1,-4.9028777,-444.1498990,32.98859978,-97.31805038,16,33.00159836,-97.3207016,170.2,34,32.9756012,-97.31539917,350.2
3527,KGPI,medium_airport,Glacier Park International Airport,48.3105011,-114.2559967,2977,United States,Montana,Kalispell,242810,9007,150,ASP,1,0.9667515,158.7675543,48.30895042,-114.2574997,2,48.29880142,-114.2679977,35,20,48.31909943,-114.2470016,215
3639,KLEB,medium_airport,Lebanon Municipal Airport,43.62609863,-72.30419922,603,United States,New Hampshire,Lebanon,244507,5496,100,ASP,1,0.4299105,74.7135353,43.62965012,-72.30315018,7,43.62580109,-72.31210327,59,25,43.63349915,-72.29419708,239
3897,KSPI,medium_airport,Abraham Lincoln Capital Airport,39.844101,-89.677902,598,United States,Illinois,Springfield,242891,7999,150,CON,1,0.8677836,117.6652879,39.8450985,-89.67695236,4,39.8368988,-89.68640137,41.5,22,39.85329819,-89.66750336,221.5
19373,KBHB,medium_airport,Hancock County-Bar Harbor Airport,44.45000076,-68.3615036,83,United States,Maine,Bar Harbor,245444,5200,100,ASP,1,1.5537684,150.6708532,44.45034981,-68.36315155,4,44.44390106,-68.36730194,24.5,22,44.45679855,-68.35900116,204.5
20890,KPVU,medium_airport,Provo-Utah Lake International Airport,40.2192,-111.723,4497,United States,Utah,Provo,245690,8599,150,ASP,1,-1.1467026,-87.8931710,40.22045135,-111.7234993,13,40.23020172,-111.7320023,145.8,31,40.21070099,-111.7149963,325.8
20777,KOWD,medium_airport,Norwood Memorial Airport,42.19049835,-71.17289734,49,United States,Massachusetts,Norwood,243107,3995,75,ASP,0,0.0134995,43.1529733,42.19219971,-71.17115021,10,42.19210052,-71.17849731,89,28,42.19229889,-71.1638031,269
20141,KI69,small_airport,Clermont County Airport,39.07839966,-84.21019745,843,United States,Ohio,Batavia,244412,3568,75,ASP,1,1.0606936,128.3995944,39.07879829,-84.20979691,4,39.07529831,-84.21309662,37,22,39.08229828,-84.20649719,217
19983,KGTU,small_airport,Georgetown Municipal Airport,30.677543,-97.678524,790,United States,Texas,Georgetown,241446,4100,75,ASP,1,-0.5090259,-19.0434057,30.67854977,-97.68060303,11,30.6814003,-97.686203,120.6,29,30.67569923,-97.67500305,300.6
21400,KXFL,small_airport,Flagler Executive Airport,29.4674,-81.206299,33,United States,Florida,Palm Coast,242708,5000,200,ASP,0,3.7011677,330.0276964,29.46474934,-81.20759964,2,29.45809937,-81.20939636,13,20,29.47139931,-81.20580292,193
3769,KPFN,closed,Panama City-Bay Co International Airport,30.212099,-85.6828,20,United States,Florida,Panama City,240553,4884,150,ASP,1,0.8545423,103.4313770,30.21119976,-85.6835022,5,30.2064991,-85.68900299,45,23,30.21590042,-85.6780014,225
3404,KBGM,medium_airport,Greater Binghamton/Edwin A Link field,42.20869827,-75.97979736,1636,United States,New York,Binghamton,245615,5002,150,ASP,1,0.0433250,45.4973232,42.20549965,-75.97969818,10,42.20510101,-75.98889923,87,28,42.20589828,-75.97049713,267
3508,KEKO,medium_airport,Elko Regional Airport,40.82490158,-115.7919998,5140,United States,Nevada,Elko,241189,7214,150,ASP,1,0.2880684,74.1791433,40.8227005,-115.793499,5,40.81909943,-115.8059998,69,23,40.82630157,-115.7809982,249
3555,KGGG,medium_airport,East Texas Regional Airport,32.38399887,-94.71150208,365,United States,Texas,Longview,240587,10000,150,ASP,1,-0.8120313,-44.5231845,32.38300133,-94.70840073,13,32.39250183,-94.7201004,133.8,31,32.37350082,-94.69670105,313.8
3635,KLBF,medium_airport,North Platte Regional Airport Lee Bird Field,41.12620163,-100.6839981,2777,United States,Nebraska,North Platte,241259,8000,150,CON,1,-0.5563847,-14.8901828,41.12579918,-100.6785011,12,41.13219833,-100.6900024,126,30,41.11940002,-100.6669998,306
3856,KROW,medium_airport,Roswell Air Center Airport,33.301601,-104.530998,3671,United States,New Mexico,Roswell,244233,13001,150,PEM,1,0.8400305,121.1003710,33.29869843,-104.5220032,3,33.28609848,-104.5370026,45,21,33.31129837,-104.5070038,225
3664,KMBS,medium_airport,MBS International Airport,43.532902,-84.079597,668,United States,Michigan,Saginaw,242882,8002,150,ASP,1,0.7127472,103.4611401,43.53449821,-84.07839966,5,43.52679825,-84.08920288,45.5,23,43.54219818,-84.06759644,225.5
3898,KSPS,medium_airport,Sheppard Air Force Base-Wichita Falls Municipal Airport,33.9888,-98.491898,1019,United States,Texas,Wichita Falls,243540,10003,150,PEM,1,-2.0984991,-172.6897718,33.99350166,-98.49100113,15,34.00630188,-98.49710083,158.3,33,33.98070145,-98.48490143,338.3
3906,KSTP,medium_airport,St Paul Downtown Holman Field,44.93450165,-93.05999756,705,United States,Minnesota,St Paul,244903,3657,100,ASP,1,-0.0140693,43.6255086,44.93479919,-93.06034851,9,44.93489838,-93.06739807,90.7,27,44.93470001,-93.05329895,270.7
20850,KPNE,medium_airport,Northeast Philadelphia Airport,40.081902,-75.010597,120,United States,Pennsylvania,Philadelphia,244456,7000,150,ASP,1,0.6810065,91.1668121,40.08390045,-75.0109024,6,40.07749939,-75.02030182,48.3,24,40.09030151,-75.00150299,228.3
3941,KUKI,medium_airport,Ukiah Municipal Airport,39.12599945,-123.2009964,614,United States,California,Ukiah,241489,4415,150,ASP,1,-3.9593909,-448.6729861,39.12594986,-123.2005005,15,39.13190079,-123.2020035,168.4,33,39.11999893,-123.1989975,348.4
3649,KLOU,medium_airport,Bowman Field,38.22800064,-85.66369629,546,United States,Kentucky,Louisville,242376,4357,75,ASP,1,0.4691901,78.4206383,38.22844887,-85.66290283,6,38.22539902,-85.66940308,60,24,38.23149872,-85.65640259,240
19549,KCRE,medium_airport,Grand Strand Airport,33.81169891,-78.72389984,32,United States,South Carolina,North Myrtle Beach,243123,5996,100,ASP,1,0.8096133,97.5476682,33.81175041,-78.72389984,5,33.80599976,-78.73100281,46.1,23,33.81750107,-78.71679688,226.1
21325,KVIS,medium_airport,Visalia International Airport,36.318699,-119.392998,295,United States,California,Visalia,241477,6559,150,ASP,1,-0.7937530,-58.4498996,36.3186512,-119.3930016,12,36.32500076,-119.401001,134.9,30,36.31230164,-119.3850021,314.9
3954,KWWD,medium_airport,Cape May County Airport,39.00849915,-74.90830231,23,United States,New Jersey,Wildwood,244311,4998,150,ASP,1,-138.1538462,-10309.4939491,39.00984955,-74.90565109,1,39.00299835,-74.9056015,359.6,19,39.01670074,-74.90570068,179.6
19296,KAPV,small_airport,Apple Valley Airport,34.57529831,-117.185997,3062,United States,California,Apple Valley,241840,4099,60,ASP,1,0.0000000,34.5695992,34.56959915,-117.1870003,8,34.56959915,-117.1940002,90,26,34.56959915,-117.1800003,270
19660,KDTO,small_airport,Denton Municipal Airport,33.20069885,-97.19799805,642,United States,Texas,Denton,245874,7002,150,ASP,1,41.5865385,4075.3290338,33.20075035,-97.19799805,18,33.20899963,-97.19779968,181,36,33.19250107,-97.19819641,1
